station_id,station_name,station_longitude,station_latitude,station_address
1.0,국제여객선터미널,126.54433,33.52438,제주특별자치도 제주시 건입동 908-20
2.0,오광로입구,126.45618,33.49527,제주특별자치도 제주시 이호이동 1587-4
3.0,오광로입구,126.45623,33.495459999999994,제주특별자치도 제주시 이호이동 1587-1
4.0,이호2동,126.46137,33.49488,제주특별자치도 제주시 이호이동 803-6
5.0,이호2동,126.46122,33.49508,제주특별자치도 제주시 이호이동 803-5
6.0,노형주공아파트,126.47393000000001,33.4906,제주특별자치도 제주시 노형동 2577-2
7.0,노형주공아파트,126.47418,33.49068,제주특별자치도 제주시 노형동 1238-1
8.0,못가름,126.47678,33.48843,제주특별자치도 제주시 노형동 1297-5
9.0,노형우체국,126.47726000000002,33.48765,제주특별자치도 제주시 노형동 1064-6
10.0,노형우체국,126.47833,33.48709,제주특별자치도 제주시 노형동 1297-5
11.0,노형오거리,126.48013,33.48503,제주특별자치도 제주시 노형동 919
12.0,롯데마트,126.48218,33.4819,제주특별자치도 제주시 노형동 711-6
13.0,롯데마트,126.4824,33.48215,제주특별자치도 제주시 노형동 767
14.0,비석동,126.4179,33.48838,제주특별자치도 제주시 애월읍 하귀1리 3010
15.0,관전동,126.41909,33.48883,제주특별자치도 제주시 애월읍 하귀1리 264-7
16.0,관전동,126.42015,33.48983,제주특별자치도 제주시 애월읍 하귀1리 13
17.0,연대마을,126.4228,33.49129,제주특별자치도 제주시 외도일동 2111-1
18.0,연대마을,126.42325,33.49174,제주특별자치도 제주시 외도일동 2552-1
19.0,수정동,126.42858999999999,33.49264,제주특별자치도 제주시 외도일동 646-1
20.0,연대마을,126.42858000000001,33.49282,제주특별자치도 제주시 외도이동 2552
21.0,모감동,126.38115,33.47573,제주특별자치도 제주시 애월읍 구엄리 930-1
22.0,모감동,126.38108000000001,33.47591,제주특별자치도 제주시 애월읍 구엄리 860-5
23.0,번대동,126.39157,33.47889,제주특별자치도 제주시 애월읍 구엄리 50-1
24.0,번대동,126.39263999999999,33.478840000000005,제주특별자치도 제주시 애월읍 하귀2리 2970-1
25.0,하귀리,126.39517,33.47955,제주특별자치도 제주시 애월읍 하귀2리 2442
26.0,하귀초등학교,126.40212,33.48017,제주특별자치도 제주시 애월읍 하귀2리 1908-2
27.0,외도초등학교,126.43321,33.49342,제주특별자치도 제주시 외도이동 234-25
28.0,외도초등학교,126.4344,33.4939,제주특별자치도 제주시 외도이동 272-38
29.0,내도동서마을,126.43848,33.49393,제주특별자치도 제주시 내도동 580-8
30.0,내도동서마을,126.43845,33.49415,제주특별자치도 제주시 내도동 580-1
31.0,내도동동마을,126.44243,33.49309,제주특별자치도 제주시 내도동 310-6
32.0,내도동동마을,126.44242,33.49324,제주특별자치도 제주시 내도동 351-9
33.0,신산마을,126.44445,33.493520000000004,제주특별자치도 제주시 내도동 896
34.0,신산마을,126.44538999999999,33.493520000000004,제주특별자치도 제주시 내도동 274-8
35.0,현사마을,126.45023,33.4947,제주특별자치도 제주시 이호일동 1905-8
36.0,현사마을,126.44961,33.49473,제주특별자치도 제주시 이호일동 1962
37.0,하귀초등학교,126.40105,33.48022,제주특별자치도 제주시 애월읍 하귀2리 3016
38.0,하귀우체국,126.4045,33.48122,제주특별자치도 제주시 애월읍 하귀2리 3016
39.0,하귀우체국,126.40443,33.4813,제주특별자치도 제주시 애월읍 하귀2리 3016
40.0,안남동,126.40616000000001,33.48238,제주특별자치도 제주시 애월읍 하귀1리 3013
41.0,안남동,126.40661999999999,33.48251,제주특별자치도 제주시 애월읍 하귀1리 1375
42.0,남주동,126.40847,33.48368,제주특별자치도 제주시 애월읍 하귀1리 1362-1
43.0,남주동,126.40876000000002,33.48405,제주특별자치도 제주시 애월읍 하귀1리 3013
44.0,하귀환승정류장(하귀하나로마트),126.4121,33.48567,제주특별자치도 제주시 애월읍 하귀1리 569-3
45.0,하귀환승정류장(하귀하나로마트),126.41171000000001,33.48578,제주특별자치도 제주시 애월읍 하귀1리 488-2
46.0,큰구릉내,126.41353000000001,33.48655,제주특별자치도 제주시 애월읍 하귀1리 477-3
47.0,학원동,126.39766000000002,33.47493,제주특별자치도 제주시 애월읍 하귀2리 3018
48.0,학원동,126.39706000000001,33.474759999999996,제주특별자치도 제주시 애월읍 하귀2리 2297-3
49.0,외도부영2차아파트,126.43073999999999,33.48488,제주특별자치도 제주시 외도일동 644-6
50.0,외도부영2차아파트,126.43098,33.48483,제주특별자치도 제주시 외도일동 646-1
51.0,도평초등학교,126.44561999999999,33.48185,제주특별자치도 제주시 도평동 1351-1
52.0,도평초등학교,126.44555,33.48168,제주특별자치도 제주시 도평동 1352-3
53.0,아름마을아파트,126.42908,33.483979999999995,제주특별자치도 제주시 외도일동 1587-2
54.0,아름마을아파트,126.42833999999999,33.48413,제주특별자치도 제주시 외도일동 646-1
55.0,계명동,126.4268,33.4855,제주특별자치도 제주시 외도일동 646-1
56.0,계명동,126.42662,33.485929999999996,제주특별자치도 제주시 외도일동 1609-1
57.0,한라주택,126.4268,33.48807,제주특별자치도 제주시 외도일동 646-1
58.0,계명동입구,126.42665,33.48803,제주특별자치도 제주시 외도일동 646-1
59.0,일우한란아파트,126.43087,33.492509999999996,제주특별자치도 제주시 외도일동 646-1
60.0,일우한란아파트,126.43101999999999,33.4926,제주특별자치도 제주시 외도일동 426-1
61.0,우령이마을,126.4308,33.4885,제주특별자치도 제주시 외도일동 498-9
62.0,우령마을입구,126.43099,33.488459999999996,제주특별자치도 제주시 외도일동 646-1
63.0,외도부영1차아파트,126.43097,33.48635,제주특별자치도 제주시 외도일동 646-1
64.0,하귀리,126.39563999999999,33.47931,제주특별자치도 제주시 애월읍 하귀2리 2424-7
65.0,연미마을회관,126.50488999999999,33.486540000000005,제주특별자치도 제주시 오라이동 3044-3
66.0,연미마을회관,126.5048,33.48665,제주특별자치도 제주시 오라이동 3034-1
67.0,연미마을,126.50738,33.486999999999995,제주특별자치도 제주시 오라이동 1918-2
68.0,연미마을,126.50708999999999,33.48686,제주특별자치도 제주시 오라이동 1946-1
69.0,연미입구,126.50838,33.48762,제주특별자치도 제주시 오라이동 1843-2
70.0,연미입구,126.50846000000001,33.48772,제주특별자치도 제주시 오라이동 3827-6
71.0,오라초등학교,126.51238000000001,33.48908,제주특별자치도 제주시 오라이동 1364-10
72.0,오라초등학교,126.5125,33.48916,제주특별자치도 제주시 오라이동 1373-3
73.0,제주시보건소,126.51937,33.49129,제주특별자치도 제주시 오라일동 1044-12
74.0,보건소,126.51957,33.49108,제주특별자치도 제주시 도남동 1039-3
75.0,오라1동,126.5173,33.49225,제주특별자치도 제주시 오라일동 1042-6
76.0,오라1동,126.51621999999999,33.49263,제주특별자치도 제주시 오라일동 1001-9
77.0,사평마을,126.51245,33.49287,제주특별자치도 제주시 오라이동 1209-4
78.0,사평마을,126.51321999999999,33.49257,제주특별자치도 제주시 오라이동 1212-1
79.0,동성마을입구,126.50753,33.4932,제주특별자치도 제주시 오라삼동 2138-1
80.0,연미마을입구,126.5075,33.492979999999996,제주특별자치도 제주시 오라삼동 2107-3
83.0,수산리사무소앞,126.39339,33.46794000000001,제주특별자치도 제주시 애월읍 수산리 506-2
84.0,수산리사무소앞,126.39336999999999,33.46765,제주특별자치도 제주시 애월읍 수산리 463-12
85.0,수산리사무소,126.39457,33.46954,제주특별자치도 제주시 애월읍 수산리 531-1
86.0,수산리,126.39453999999999,33.46995,제주특별자치도 제주시 애월읍 수산리 550-1
87.0,세기아파트,126.5015,33.49335,제주특별자치도 제주시 오라삼동 2724-2
88.0,세기아파트,126.50055,33.493559999999995,제주특별자치도 제주시 오라삼동 2728-2
89.0,신광사거리,126.49318000000001,33.49365,제주특별자치도 제주시 연동 305-3
90.0,신성마을,126.48916000000001,33.49367,제주특별자치도 제주시 연동 2335-4
91.0,신성마을,126.48852,33.493829999999996,제주특별자치도 제주시 연동 1941-1
92.0,제성마을,126.4854,33.49361,제주특별자치도 제주시 연동 2335-4
93.0,제성마을,126.48403,33.49374,제주특별자치도 제주시 연동 2419-3
94.0,제주서중학교,126.48168000000001,33.49351,제주특별자치도 제주시 연동 2395-1
95.0,제주서중학교,126.48135,33.49367,제주특별자치도 제주시 연동 2412-1
96.0,제주민속오일장,126.4767,33.493759999999995,제주특별자치도 제주시 노형동 1142-3
97.0,제주민속오일장,126.47763,33.493520000000004,제주특별자치도 제주시 노형동 1297-1
98.0,제주민속오일장입구,126.47495,33.493759999999995,제주특별자치도 제주시 노형동 1141-3
99.0,월랑로입구,126.47213,33.49368,제주특별자치도 제주시 도두일동 2270-2
100.0,월랑입구,126.47156000000001,33.49395,제주특별자치도 제주시 도두일동 2270-3
107.0,수선화아파트,126.52984,33.48923,제주특별자치도 제주시 도남동 91-3
108.0,제주연안여객터미널,126.53551999999999,33.51898,제주특별자치도 제주시 건입동 918-13
109.0,제주연안여객터미널,126.53535,33.51915,제주특별자치도 제주시 건입동 918-54
110.0,산지변전소,126.53268,33.51713,제주특별자치도 제주시 건입동 984-4
111.0,산지변전소,126.53261,33.51692,제주특별자치도 제주시 건입동 984-119
112.0,종합어시장,126.52793,33.5164,제주특별자치도 제주시 건입동 1429
113.0,탑동푸른쉼터,126.52711000000001,33.51656,제주특별자치도 제주시 건입동 1388-18
114.0,탑동입구,126.52467,33.51531,제주특별자치도 제주시 일도일동 1279-9
115.0,탑동입구,126.52483000000001,33.51585,제주특별자치도 제주시 일도일동 1278-11
116.0,남국사,126.54958,33.46215,제주특별자치도 제주시 아라일동 1918-9
117.0,남국사,126.54978999999999,33.46049,제주특별자치도 제주시 아라일동 499-7
118.0,웃인다마을,126.54925,33.464459999999995,제주특별자치도 제주시 아라일동 628-2
119.0,죽성마을입구,126.5491,33.46313,제주특별자치도 제주시 아라일동 1918-13
120.0,제주대학교병원,126.54777,33.469159999999995,제주특별자치도 제주시 아라일동 1801-4
121.0,제주대학교병원,126.54739,33.46909,제주특별자치도 제주시 아라일동 1803-8
122.0,인다마을,126.54581999999999,33.47064,제주특별자치도 제주시 아라일동 6174
123.0,인다마을,126.5454,33.47145,제주특별자치도 제주시 아라일동 6174
124.0,아라주공아파트,126.54569,33.473079999999996,제주특별자치도 제주시 아라일동 6174
125.0,아라주공아파트,126.54542,33.473659999999995,제주특별자치도 제주시 아라일동 6092-7
126.0,케이티앤지,126.48535,33.48207,제주특별자치도 제주시 노형동 767
127.0,종합사격장,126.56753,33.44028,제주특별자치도 제주시 영평동 산 8-24
128.0,종합사격장,126.56625,33.441829999999996,제주특별자치도 제주시 아라일동 3-44
129.0,제주의료원,126.55843,33.44571,제주특별자치도 제주시 아라일동 4-121
130.0,제주의료원,126.55816000000002,33.44567,제주특별자치도 제주시 아라일동 2986-1
131.0,아라동주민센터,126.5449,33.4759,제주특별자치도 제주시 아라일동 6174
132.0,아라초등학교,126.54428,33.47653,제주특별자치도 제주시 아라일동 6174
135.0,산천단,126.55538999999999,33.44786,제주특별자치도 제주시 아라일동 371-4
136.0,산천단한국폴리텍대학,126.55558,33.447990000000004,제주특별자치도 제주시 아라일동 370-10
137.0,사회복지법인춘강,126.55125,33.45265,제주특별자치도 제주시 아라일동 2995-25
138.0,사회복지법인춘강,126.55163999999999,33.45264,제주특별자치도 제주시 아라일동 415-14
139.0,영주고등학교,126.57786000000002,33.457190000000004,제주특별자치도 제주시 월평동 1378-1
140.0,영주고등학교,126.57775,33.45712,제주특별자치도 제주시 월평동 651-73
141.0,정부제주지방합동청사,126.52738000000001,33.49205,제주특별자치도 제주시 도남동 91-2
142.0,정부제주지방합동청사,126.5266,33.4923,제주특별자치도 제주시 도남동 91-2
143.0,양지(추모)공원,126.57652,33.43865,제주특별자치도 제주시 영평동 2255-2
144.0,양지(추모)공원,126.5764,33.43848,제주특별자치도 제주시 영평동 2255-5
145.0,제주국제대학교,126.56943999999999,33.438629999999996,제주특별자치도 제주시 영평동 산 8-10
146.0,제주국제대학교,126.56936,33.43842,제주특별자치도 제주시 영평동 산 8-6
147.0,용천마을,126.52135,33.49991,제주특별자치도 제주시 삼도일동 585-35
148.0,남서광마을입구,126.52126000000001,33.49968,제주특별자치도 제주시 삼도일동 585-35
149.0,제주버스터미널,126.51486000000001,33.49993,제주특별자치도 제주시 오라일동 2455-2
150.0,제주버스터미널,126.51471000000001,33.5002,제주특별자치도 제주시 용담일동 2829-7
151.0,한국병원,126.51768999999999,33.499790000000004,제주특별자치도 제주시 삼도일동 585-35
152.0,한국병원,126.51807,33.50005,제주특별자치도 제주시 삼도일동 585-35
153.0,중앙마을,126.5197,33.50163,제주특별자치도 제주시 삼도일동 533-6
154.0,용천마을,126.51995,33.50155,제주특별자치도 제주시 삼도일동 585-13
155.0,삼도1동주민센터,126.51971,33.50318,제주특별자치도 제주시 삼도일동 531-14
157.0,보건소,126.52088,33.49238,제주특별자치도 제주시 도남동 1035-1
158.0,보건소,126.52207,33.49212,제주특별자치도 제주시 도남동 792-4
164.0,광양사거리,126.5271,33.50047,제주특별자치도 제주시 이도일동 1775-21
165.0,탐라장애인종합복지관,126.52563,33.50023,제주특별자치도 제주시 이도일동 1938
166.0,탐라장애인종합복지관,126.52583,33.50002,제주특별자치도 제주시 이도이동 1781-9
167.0,홍랑로입구,126.52387,33.499970000000005,제주특별자치도 제주시 삼도일동 585-35
168.0,남서광마을,126.52376000000001,33.499790000000004,제주특별자치도 제주시 삼도일동 585-35
169.0,동성마을,126.51103,33.50005,제주특별자치도 제주시 오라이동 2424-7
170.0,동산교,126.51026999999999,33.50028,제주특별자치도 제주시 용담이동 2637-7
171.0,월구마을,126.507,33.50013,제주특별자치도 제주시 오라삼동 2341-3
172.0,오라3동,126.50318,33.49925,제주특별자치도 제주시 오라삼동 2574-1
173.0,명신마을,126.50303000000001,33.49962,제주특별자치도 제주시 용담이동 2775
174.0,명주주택,126.49349,33.49579,제주특별자치도 제주시 용담이동 1815
175.0,명주주택,126.49376000000001,33.495670000000004,제주특별자치도 제주시 연동 2514-1
176.0,문서교,126.61419,33.52815,제주특별자치도 제주시 조천읍 신촌리 2793
177.0,문서교,126.61328,33.527770000000004,제주특별자치도 제주시 조천읍 신촌리 3170-2
178.0,진드르,126.60813,33.5242,제주특별자치도 제주시 조천읍 신촌리 3096-10
179.0,진드르,126.60692,33.52367,제주특별자치도 제주시 조천읍 신촌리 4005
180.0,삼양검문소,126.60085,33.52095,제주특별자치도 제주시 조천읍 신촌리 3901-3
181.0,삼양검문소,126.60003,33.52102,제주특별자치도 제주시 삼양일동 604-2
184.0,제원아파트,126.49013000000001,33.48845,제주특별자치도 제주시 연동 272
185.0,제원아파트,126.48988999999999,33.48753,제주특별자치도 제주시 연동 262-5
186.0,은남동,126.4909,33.485820000000004,제주특별자치도 제주시 연동 273
187.0,은남동,126.49248,33.48588,제주특별자치도 제주시 연동 283
188.0,도호동,126.49492,33.485659999999996,제주특별자치도 제주시 연동 293
189.0,도호동,126.49501000000001,33.48581,제주특별자치도 제주시 연동 293
190.0,제주중앙중학교,126.49938,33.48553,제주특별자치도 제주시 연동 314-90
191.0,제주중앙중학교,126.5001,33.485690000000005,제주특별자치도 제주시 연동 323
192.0,함덕환승정류장(함덕해수욕장),126.66913999999998,33.54101,제주특별자치도 제주시 조천읍 함덕리 4143
193.0,함덕리(4구),126.67323,33.53998,제주특별자치도 제주시 조천읍 함덕리 286-6
195.0,함덕광명샤인빌앞,126.67461000000002,33.53823,제주특별자치도 제주시 조천읍 함덕리 4171
196.0,신사동,126.67575,33.53483,제주특별자치도 제주시 조천읍 함덕리 72-5
197.0,신사동,126.6756,33.534659999999995,제주특별자치도 제주시 조천읍 함덕리 72-60
198.0,함덕환승정류장(함덕해수욕장),126.66877,33.54101,제주특별자치도 제주시 조천읍 함덕리 1002-73
199.0,제주모자원입구,126.56643999999999,33.46286,제주특별자치도 제주시 영평동 2796
200.0,제주대학교,126.56161999999999,33.45989,제주특별자치도 제주시 아라일동 1
201.0,제주대학교,126.56166,33.46011,제주특별자치도 제주시 아라이동 35-4
202.0,제대아파트,126.55735,33.45878,제주특별자치도 제주시 아라일동 349-5
203.0,제대아파트,126.5573,33.4589,제주특별자치도 제주시 아라일동 349-4
204.0,제대마을,126.55401,33.45772,제주특별자치도 제주시 아라일동 452-9
205.0,제대마을,126.55394,33.45785,제주특별자치도 제주시 아라일동 452-2
206.0,제주대학교입구,126.55175,33.45627,제주특별자치도 제주시 아라일동 428-2
207.0,제주대학교입구,126.55076000000001,33.456720000000004,제주특별자치도 제주시 아라일동 426-11
208.0,서해아파트,126.54151999999999,33.504259999999995,제주특별자치도 제주시 일도이동 414
209.0,서해아파트,126.54153000000001,33.50488,제주특별자치도 제주시 일도이동 459
210.0,인화동,126.53981999999999,33.50888,제주특별자치도 제주시 일도이동 432
211.0,인화동,126.5394,33.50923,제주특별자치도 제주시 일도이동 330-26
212.0,일도2동주민센터,126.53906,33.51068,제주특별자치도 제주시 일도이동 432
213.0,일도2동주민센터,126.53853000000001,33.5113,제주특별자치도 제주시 일도이동 161-21
214.0,인화동입구,126.53851999999999,33.51272,제주특별자치도 제주시 일도이동 421
215.0,인화동입구,126.53827,33.51362,제주특별자치도 제주시 일도이동 1050-1
216.0,제주해양경찰서,126.5397,33.52042,제주특별자치도 제주시 건입동 918-13
218.0,제4부두,126.53818000000001,33.520179999999996,제주특별자치도 제주시 건입동 918-13
219.0,원당분화원,126.59493,33.52107,제주특별자치도 제주시 삼양일동 1354-6
220.0,원당봉,126.59325,33.52166,제주특별자치도 제주시 삼양일동 1509-4
221.0,삼양초등학교,126.58611,33.52112,제주특별자치도 제주시 삼양이동 2186-1
222.0,삼양동주민센터,126.58567,33.52128,제주특별자치도 제주시 삼양이동 2186-1
223.0,삼양2동,126.58236000000001,33.52128,제주특별자치도 제주시 삼양이동 2186-1
224.0,삼양2동,126.58041999999999,33.52118,제주특별자치도 제주시 삼양이동 2186-1
225.0,조천리,126.6365,33.535779999999995,제주특별자치도 제주시 조천읍 조천리 2229-9
226.0,조천리,126.63625,33.535779999999995,제주특별자치도 제주시 조천읍 조천리 2385
228.0,조천리새마을공장,126.63271,33.53497,제주특별자치도 제주시 조천읍 조천리 3205-1
229.0,조천읍사무소,126.63217,33.534859999999995,제주특별자치도 제주시 조천읍 조천리 3231
230.0,대섬입구,126.62565,33.53568,제주특별자치도 제주시 조천읍 신촌리 541-4
231.0,대섬입구,126.62603999999999,33.53586,제주특별자치도 제주시 조천읍 신촌리 529-17
232.0,신촌리,126.62168,33.53463,제주특별자치도 제주시 조천읍 신촌리 4005
233.0,신촌리,126.62156,33.53439,제주특별자치도 제주시 조천읍 신촌리 1791-3
234.0,신촌초등학교,126.61877,33.53275,제주특별자치도 제주시 조천읍 신촌리 4005
235.0,신촌초등학교,126.61856,33.5323,제주특별자치도 제주시 조천읍 신촌리 4005
236.0,명도암입구,126.60386000000001,33.48465,제주특별자치도 제주시 봉개동 2736
237.0,명도암입구,126.60411,33.48495,제주특별자치도 제주시 봉개동 601-12
239.0,봉개동주민센터,126.59445,33.49073,제주특별자치도 제주시 봉개동 1829-7
240.0,화북주공아파트,126.57588999999999,33.521229999999996,제주특별자치도 제주시 화북일동 29-1
241.0,화북주공아파트,126.57471000000001,33.52121,제주특별자치도 제주시 화북일동 1265-4
242.0,화북주공아파트입구,126.57271000000001,33.51882,제주특별자치도 제주시 화북일동 1221-13
243.0,화북주공아파트입구,126.57295,33.51899,제주특별자치도 제주시 화북일동 29-4
244.0,동화로입구,126.57286,33.51312,제주특별자치도 제주시 화북이동 826-7
245.0,동화로입구,126.57311999999999,33.5124,제주특별자치도 제주시 화북이동 824-9
246.0,혜원정사,126.60065,33.49038,제주특별자치도 제주시 봉개동 1504-5
247.0,혜원정사,126.60055,33.49045,제주특별자치도 제주시 봉개동 1504-8
248.0,서회천,126.60688,33.49855,제주특별자치도 제주시 회천동 2939-2
249.0,서회천,126.60673,33.49858,제주특별자치도 제주시 회천동 3270
250.0,조천리상동,126.6358,33.53522,제주특별자치도 제주시 조천읍 조천리 2202-1
251.0,신설동,126.54661999999999,33.49788,제주특별자치도 제주시 일도이동 115
252.0,신설동,126.54843000000001,33.49865,제주특별자치도 제주시 일도이동 115
253.0,대림아파트,126.55023,33.49962,제주특별자치도 제주시 일도이동 115
254.0,대림아파트,126.55038,33.49988,제주특별자치도 제주시 일도이동 115
255.0,대유대림아파트,126.55272,33.50245,제주특별자치도 제주시 일도이동 91-1
256.0,대유대림아파트,126.5526,33.5024,제주특별자치도 제주시 일도이동 91-1
257.0,신천동,126.54959,33.50393,제주특별자치도 제주시 일도이동 115-13
258.0,신천동,126.54907,33.50343,제주특별자치도 제주시 일도이동 115-13
259.0,동광초등학교,126.54576000000002,33.5017,제주특별자치도 제주시 일도이동 115
260.0,동광초등학교,126.54475,33.5014,제주특별자치도 제주시 일도이동 115
261.0,연수마을,126.54336,33.50163,제주특별자치도 제주시 일도이동 115
262.0,제주학생문화원,126.54316999999999,33.5015,제주특별자치도 제주시 이도이동 443
263.0,회천입구,126.5984,33.489000000000004,제주특별자치도 제주시 봉개동 2736
264.0,봉개큰동네,126.59881000000001,33.48935,제주특별자치도 제주시 봉개동 1585-5
265.0,화북동마을,126.56751000000001,33.52352,제주특별자치도 제주시 화북일동 1995-7
266.0,화북중마을,126.56472,33.52333,제주특별자치도 제주시 화북일동 1995-3
267.0,화북서마을,126.56286999999999,33.522870000000005,제주특별자치도 제주시 화북일동 1995
268.0,화북남문,126.56512,33.5189,제주특별자치도 제주시 화북일동 1995-5
269.0,삼성초등학교,126.52663999999999,33.5041,제주특별자치도 제주시 이도일동 1938
270.0,보성시장,126.52726000000001,33.50342,제주특별자치도 제주시 이도일동 1938
271.0,광양,126.52806000000001,33.502320000000005,제주특별자치도 제주시 이도일동 1938
272.0,광양,126.52796000000001,33.502109999999995,제주특별자치도 제주시 이도일동 1789-3
273.0,동광양,126.5322,33.50202,제주특별자치도 제주시 이도이동 1174-26
274.0,동광양,126.53222,33.5022,제주특별자치도 제주시 이도일동 1938
275.0,문예회관,126.53703,33.504490000000004,제주특별자치도 제주시 이도이동 326
276.0,문예회관,126.53691,33.50463,제주특별자치도 제주시 일도이동 449
277.0,인화초등학교,126.53888,33.50602,제주특별자치도 제주시 일도이동 449
278.0,인화초등학교,126.53936999999999,33.506679999999996,제주특별자치도 제주시 일도이동 449
279.0,동문로터리(동문시장),126.52706,33.51315,제주특별자치도 제주시 일도일동 1478-9
280.0,동문로터리(동문시장),126.52795,33.512950000000004,제주특별자치도 제주시 일도일동 1148-2
281.0,중앙로(중앙성당),126.52447,33.512,제주특별자치도 제주시 이도일동 1369-1
282.0,중앙로(동문시장),126.52457,33.51168,제주특별자치도 제주시 이도일동 1410-3
283.0,중앙로(현대약국),126.52421000000001,33.51089,제주특별자치도 제주시 이도일동 1471-3
284.0,중앙로(국민은행),126.5239,33.51073,제주특별자치도 제주시 이도일동 1466-1
285.0,시민회관,126.5247,33.507329999999996,제주특별자치도 제주시 이도일동 1938
286.0,시민회관,126.52455,33.5071,제주특별자치도 제주시 삼도이동 231-3
287.0,명도암마을회관,126.6107,33.47092,제주특별자치도 제주시 봉개동 365-13
288.0,명도암마을회관,126.61086,33.47099,제주특별자치도 제주시 봉개동 418-1
289.0,지명뒤,126.60838000000001,33.47538,제주특별자치도 제주시 봉개동 485
290.0,지명뒤,126.60805,33.47545,제주특별자치도 제주시 봉개동 731-3
291.0,천수동,126.5419,33.50847,제주특별자치도 제주시 일도이동 449
292.0,천수동,126.54257,33.50934,제주특별자치도 제주시 일도이동 449
293.0,국립제주박물관,126.54997,33.51248,제주특별자치도 제주시 건입동 1427-5
294.0,고으니모르국립제주박물관,126.55096,33.512609999999995,제주특별자치도 제주시 화북이동 4947-3
295.0,거로남쪽입구,126.5613,33.50493,제주특별자치도 제주시 화북이동 3254-2
296.0,거로남쪽입구,126.56168999999998,33.50495,제주특별자치도 제주시 화북이동 3254-1
297.0,부록마을,126.56926999999999,33.50136,제주특별자치도 제주시 화북이동 2780-4
298.0,부록마을,126.56875,33.50185,제주특별자치도 제주시 화북이동 2650-3
299.0,화물청사입구,126.50448,33.50418,제주특별자치도 제주시 용담이동 746-3
300.0,용문마을회관,126.50765,33.50495,제주특별자치도 제주시 용담이동 2813-1
301.0,용문마을회관,126.50825,33.50565,제주특별자치도 제주시 용담이동 674-3
302.0,용문마을,126.50936000000002,33.507259999999995,제주특별자치도 제주시 용담이동 2681-47
303.0,용문마을,126.50941,33.50765,제주특별자치도 제주시 용담이동 2580-42
304.0,용문사거리,126.51023,33.50866,제주특별자치도 제주시 용담이동 2679-7
305.0,용문사거리,126.51005,33.50881,제주특별자치도 제주시 용담이동 641-29
306.0,용담1동주민센터,126.51323000000001,33.50973,제주특별자치도 제주시 용담일동 2583
307.0,용담1동주민센터,126.51333000000001,33.50995,제주특별자치도 제주시 용담일동 2579-1
308.0,제주중학교/제주향교,126.5157,33.51078,제주특별자치도 제주시 용담일동 288-1
309.0,사라봉오거리,126.54045,33.51367,제주특별자치도 제주시 일도이동 421
310.0,제주여자상업고등학교,126.53696000000001,33.51383,제주특별자치도 제주시 일도이동 981-43
311.0,제주여자상업고등학교,126.53652,33.51393,제주특별자치도 제주시 건입동 1047-1
312.0,제주동초등학교,126.5328,33.51328,제주특별자치도 제주시 일도이동 994-14
313.0,제주동초등학교,126.53221,33.51332,제주특별자치도 제주시 건입동 1109-10
314.0,사라봉,126.54435,33.51294,제주특별자치도 제주시 건입동 1427-5
315.0,사라봉,126.54285,33.51316,제주특별자치도 제주시 일도이동 421
316.0,사라봉오거리,126.54158000000001,33.513529999999996,제주특별자치도 제주시 건입동 711
317.0,신제주초등학교,126.49648,33.4843,제주특별자치도 제주시 연동 304
318.0,연동주민센터,126.49636000000001,33.48815,제주특별자치도 제주시 연동 302
319.0,연동주민센터,126.49662,33.48731,제주특별자치도 제주시 연동 303
320.0,제주도청신제주로터리,126.49678,33.49143,제주특별자치도 제주시 연동 301
321.0,제주도청신제주로터리,126.49647,33.4911,제주특별자치도 제주시 연동 301
322.0,서문시장,126.51767,33.511759999999995,제주특별자치도 제주시 용담일동 2579-1
323.0,서문시장,126.51845,33.512029999999996,제주특별자치도 제주시 용담일동 124-6
324.0,관덕정,126.52096,33.51293,제주특별자치도 제주시 삼도이동 955-3
325.0,관덕정,126.52088,33.513220000000004,제주특별자치도 제주시 삼도이동 995-1
326.0,농협지역본부,126.52006000000002,33.508070000000004,제주특별자치도 제주시 삼도이동 1230-4
327.0,농협지역본부,126.51982,33.50772,제주특별자치도 제주시 삼도일동 794-1
328.0,제주중앙여자중학교,126.51976,33.50553,제주특별자치도 제주시 삼도일동 787-25
329.0,제주중앙여자중학교,126.51998,33.50493,제주특별자치도 제주시 삼도이동 1230-4
330.0,수선화아파트,126.52982,33.48892,제주특별자치도 제주시 도남동 97-1
331.0,이도주공아파트,126.53398999999999,33.4902,제주특별자치도 제주시 이도이동 747
332.0,이도주공아파트,126.53418,33.49053,제주특별자치도 제주시 이도이동 777
333.0,남광로입구,126.53747,33.492509999999996,제주특별자치도 제주시 이도이동 1994-7
334.0,남광초등학교,126.53768000000001,33.49293,제주특별자치도 제주시 이도이동 1084-6
335.0,제주제일중학교,126.53936999999999,33.49385,제주특별자치도 제주시 이도이동 538-18
336.0,제주제일중학교,126.53968,33.4942,제주특별자치도 제주시 이도이동 538-18
337.0,혜성무지개타운,126.54178,33.4954,제주특별자치도 제주시 이도이동 443
338.0,혜성무지개타운,126.54236000000002,33.495509999999996,제주특별자치도 제주시 이도이동 443
339.0,이도근린공원,126.54507,33.49708,제주특별자치도 제주시 이도이동 443
340.0,한마음근린공원,126.54538000000001,33.497040000000005,제주특별자치도 제주시 이도이동 443
341.0,삼무공원,126.49127,33.48997,제주특별자치도 제주시 연동 271
342.0,삼무공원,126.4924,33.4898,제주특별자치도 제주시 연동 281
343.0,제주썬호텔,126.4937,33.48972,제주특별자치도 제주시 연동 291
344.0,제주썬호텔,126.49373,33.4899,제주특별자치도 제주시 연동 291
345.0,수협제주도지회,126.49503,33.48987,제주특별자치도 제주시 연동 291
346.0,수협제주도지회,126.49521999999999,33.4897,제주특별자치도 제주시 연동 291
347.0,이호동동마을,126.46153999999999,33.5004,제주특별자치도 제주시 이호일동 613-6
348.0,이호동동마을,126.46095,33.5003,제주특별자치도 제주시 이호일동 1961
349.0,이호동주민센터,126.45878,33.49905,제주특별자치도 제주시 이호일동 647-1
350.0,이호동주민센터,126.45827,33.49877,제주특별자치도 제주시 이호일동 1961
351.0,이호테우해수욕장,126.45546000000002,33.49623,제주특별자치도 제주시 이호일동 1962
352.0,이호테우해수욕장,126.45539,33.496320000000004,제주특별자치도 제주시 이호일동 1600-18
353.0,월랑초등학교,126.4791,33.49265,제주특별자치도 제주시 노형동 1085
354.0,월랑초등학교,126.47925,33.49253,제주특별자치도 제주시 연동 2335-1
355.0,남녕마트,126.48185,33.48993,제주특별자치도 제주시 연동 2335-1
356.0,남녕마트,126.48186000000001,33.4897,제주특별자치도 제주시 노형동 1273-6
357.0,한라병원,126.48508000000001,33.48944,제주특별자치도 제주시 연동 2335-4
358.0,한라병원,126.486,33.48963,제주특별자치도 제주시 연동 251-66
359.0,노형오거리,126.48057,33.48666,제주특별자치도 제주시 노형동 1297-5
360.0,노형오거리,126.48092,33.486670000000004,제주특별자치도 제주시 노형동 948
361.0,남녕고등학교,126.48311000000001,33.488040000000005,제주특별자치도 제주시 노형동 948
362.0,월랑마을남녕고등학교,126.48218999999999,33.4877,제주특별자치도 제주시 노형동 1297-3
363.0,신안동,126.63523,33.51957,제주특별자치도 제주시 조천읍 조천리 1937-5
364.0,신안동,126.63493000000001,33.51912,제주특별자치도 제주시 조천읍 조천리 3437-3
367.0,대기고등학교,126.59361000000001,33.49168,제주특별자치도 제주시 봉개동 1812-1
368.0,대기고등학교,126.59353,33.49205,제주특별자치도 제주시 봉개동 1795-3
369.0,아르미아파트,126.59428,33.4961,제주특별자치도 제주시 도련일동 1213-5
370.0,아르미아파트,126.59447,33.49604,제주특별자치도 제주시 도련일동 1205-5
371.0,밤나무골,126.5946,33.501259999999995,제주특별자치도 제주시 도련일동 1076-1
372.0,밤나무골,126.59453,33.50202,제주특별자치도 제주시 도련일동 1083-2
373.0,도련반석스위트타운,126.59107,33.50666,제주특별자치도 제주시 도련일동 1585-3
374.0,도련반석스위트타운,126.59121999999999,33.50666,제주특별자치도 제주시 도련일동 1588-2
375.0,도련1동,126.59003,33.50906,제주특별자치도 제주시 도련일동 1731-14
376.0,도련1동,126.58975,33.50932,제주특별자치도 제주시 도련일동 1729-4
377.0,하나로아파트,126.58918,33.51097,제주특별자치도 제주시 도련일동 1767-2
378.0,하나로아파트,126.58928,33.510979999999996,제주특별자치도 제주시 도련일동 1767-2
379.0,도련1동입구,126.58896000000001,33.51263,제주특별자치도 제주시 도련이동 1819-7
380.0,도련2동,126.58905,33.512879999999996,제주특별자치도 제주시 도련이동 1821-7
381.0,제주자동차검사소,126.58898,33.514559999999996,제주특별자치도 제주시 도련이동 568-2
382.0,자동차검사소,126.58883,33.514559999999996,제주특별자치도 제주시 도련이동 564-19
383.0,용담사거리,126.51371999999999,33.51093,제주특별자치도 제주시 용담일동 309-14
384.0,용담사거리,126.51387,33.510909999999996,제주특별자치도 제주시 용담일동 2579-1
385.0,용담새마을금고,126.51488,33.5097,제주특별자치도 제주시 용담일동 2583
386.0,용담새마을금고,126.51526000000001,33.50958,제주특별자치도 제주시 용담일동 2583
387.0,병문교,126.51831000000001,33.508829999999996,제주특별자치도 제주시 삼도일동 1230
388.0,병문교,126.51848999999999,33.50897,제주특별자치도 제주시 삼도일동 1230
389.0,서문로터리,126.51932,33.51173,제주특별자치도 제주시 용담일동 153-4
390.0,삼무공원사거리,126.48853000000001,33.49001,제주특별자치도 제주시 연동 260
391.0,삼무공원사거리,126.48892,33.4899,제주특별자치도 제주시 연동 260
392.0,월성마을회관,126.50518000000001,33.50202,제주특별자치도 제주시 용담이동 2749-35
393.0,월성마을회관,126.50475,33.502320000000005,제주특별자치도 제주시 용담이동 2747-4
394.0,함덕리(3구),126.6666,33.541709999999995,제주특별자치도 제주시 조천읍 함덕리 1270-1
395.0,함덕리(3구),126.66573999999999,33.54176,제주특별자치도 제주시 조천읍 함덕리 1268-7
396.0,함덕농협지소,126.66448999999999,33.542320000000004,제주특별자치도 제주시 조천읍 함덕리 1252-47
397.0,함덕농협지소,126.66417,33.54235,제주특별자치도 제주시 조천읍 함덕리 4139
398.0,함덕비석거리,126.66225,33.54315,제주특별자치도 제주시 조천읍 함덕리 1016
399.0,함덕비석거리,126.66167,33.543209999999995,제주특별자치도 제주시 조천읍 함덕리 1047-1
400.0,해양연구소,126.65773,33.54385,제주특별자치도 제주시 조천읍 함덕리 3230-2
401.0,해양연구소,126.65856000000001,33.54375,제주특별자치도 제주시 조천읍 함덕리 3039-2
402.0,신흥리(마을입구)함덕고등학교,126.65364,33.5436,제주특별자치도 제주시 조천읍 신흥리 230-1
403.0,신흥리(마을입구)함덕고등학교,126.6534,33.54335,제주특별자치도 제주시 조천읍 신흥리 235-2
404.0,충혼묘지,126.64983000000001,33.541920000000005,제주특별자치도 제주시 조천읍 신흥리 346-1
405.0,충혼묘지,126.6492,33.54157,제주특별자치도 제주시 조천읍 조천리 3462
406.0,주암주택,126.64567,33.54072,제주특별자치도 제주시 조천읍 조천리 803-2
407.0,주암주택,126.64543,33.54085,제주특별자치도 제주시 조천읍 조천리 836-1
408.0,조천만세동산,126.6417,33.53958,제주특별자치도 제주시 조천읍 조천리 1205-2
409.0,조천체육관,126.64273,33.54007,제주특별자치도 제주시 조천읍 조천리 1198-3
410.0,조천환승정류장(조천리사무소),126.6399,33.53826,제주특별자치도 제주시 조천읍 조천리 1220-2
411.0,조천환승정류장(조천우체국),126.63877,33.5377,제주특별자치도 제주시 조천읍 조천리 2360-1
412.0,용담레포츠공원,126.49991999999999,33.51801,제주특별자치도 제주시 용담삼동 1089-5
413.0,용담레포츠공원,126.49945,33.51938,제주특별자치도 제주시 용담삼동 1092-2
414.0,서해안로,126.4937,33.51982,제주특별자치도 제주시 용담삼동 2292-2
415.0,서해안로,126.49375,33.519709999999996,제주특별자치도 제주시 용담삼동 2293-6
416.0,어영마을,126.49008,33.519009999999994,제주특별자치도 제주시 용담삼동 2580
417.0,어영마을,126.48947,33.519009999999994,제주특별자치도 제주시 용담삼동 2292-26
418.0,몰래물,126.48283,33.51051,제주특별자치도 제주시 도두이동 706-12
419.0,제주대학교교육대학,126.553,33.51312,제주특별자치도 제주시 화북이동 4948-1
420.0,제주대학교교육대학,126.55388,33.5137,제주특별자치도 제주시 화북일동 4810-1
421.0,거로입구,126.55623999999999,33.51464,제주특별자치도 제주시 화북일동 5749
422.0,거로입구,126.55653000000001,33.51453,제주특별자치도 제주시 화북일동 4701-5
423.0,오현중고등학교,126.55707,33.51518,제주특별자치도 제주시 화북일동 4668-5
424.0,오현중고등학교,126.55861000000002,33.515609999999995,제주특별자치도 제주시 화북일동 4723
425.0,화북초등학교,126.56172,33.51762,제주특별자치도 제주시 화북일동 3994-11
426.0,장머들,126.56843,33.520579999999995,제주특별자치도 제주시 화북일동 1995-7
427.0,월산마을,126.46346000000001,33.47305,제주특별자치도 제주시 노형동 3376-7
428.0,월산마을,126.46305,33.47317,제주특별자치도 제주시 노형동 3278-17
429.0,월산정수장입구,126.46869,33.4784,제주특별자치도 제주시 노형동 2267-9
430.0,월산정수장입구,126.46893,33.47871,제주특별자치도 제주시 노형동 3766
431.0,정존마을,126.4733,33.481320000000004,제주특별자치도 제주시 노형동 3815
432.0,정존마을,126.47352,33.481809999999996,제주특별자치도 제주시 노형동 2617-2
433.0,노형초등학교,126.47596000000001,33.48353,제주특별자치도 제주시 노형동 3815
434.0,노형초등학교,126.47578,33.483709999999995,제주특별자치도 제주시 노형동 2617-3
435.0,노형오거리,126.47796000000001,33.485209999999995,제주특별자치도 제주시 노형동 1297-4
436.0,고성1리사무소,126.41264,33.45805,제주특별자치도 제주시 애월읍 고성리 1241-9
437.0,고성1리사무소,126.41286000000001,33.457840000000004,제주특별자치도 제주시 애월읍 고성리 1241-4
438.0,고성1리종합운동장,126.41516999999999,33.45845,제주특별자치도 제주시 애월읍 고성리 1556
439.0,고성1리종합운동장,126.41561000000002,33.45843,제주특별자치도 제주시 애월읍 고성리 443
440.0,광령3리,126.42388000000001,33.45893,제주특별자치도 제주시 애월읍 광령리 3945-7
441.0,광령3리,126.42445,33.45875,제주특별자치도 제주시 애월읍 광령리 3944-1
442.0,으뜸마을,126.48035,33.4791,제주특별자치도 제주시 노형동 787
443.0,제주한라대학교,126.47511999999999,33.47833,제주특별자치도 제주시 노형동 1518-1
444.0,탐라도서관,126.47741,33.47756,제주특별자치도 제주시 노형동 3812-2
445.0,제주한라대학교,126.47516,33.47808,제주특별자치도 제주시 노형동 1518-1
446.0,시티주유소,126.47976000000001,33.4764,제주특별자치도 제주시 노형동 765
447.0,제주고등학교/중흥S클래스,126.48141000000001,33.476259999999996,제주특별자치도 제주시 노형동 765
448.0,중흥S클래스아파트,126.48213999999999,33.47639,제주특별자치도 제주시 노형동 765
449.0,부영아파트,126.48313,33.4769,제주특별자치도 제주시 노형동 768
450.0,으뜸마을,126.48253000000001,33.477990000000005,제주특별자치도 제주시 노형동 768
451.0,대학동,126.50667,33.51305,제주특별자치도 제주시 용담이동 592-4
452.0,대학동,126.5076,33.513000000000005,제주특별자치도 제주시 용담이동 594-1
453.0,사대부고,126.50997,33.512570000000004,제주특별자치도 제주시 용담이동 599-8
454.0,사대부고,126.50945,33.51279,제주특별자치도 제주시 용담삼동 581
455.0,광령초등학교,126.43643999999999,33.4607,제주특별자치도 제주시 애월읍 광령리 1345-1
456.0,광령초등학교,126.43615,33.46053,제주특별자치도 제주시 애월읍 광령리 1227-4
457.0,광령1리사무소,126.43976,33.46099,제주특별자치도 제주시 애월읍 광령리 1320-2
458.0,광령1리사무소,126.43988999999999,33.460879999999996,제주특별자치도 제주시 애월읍 광령리 1276-2
459.0,제일빌리지,126.44483999999999,33.46083,제주특별자치도 제주시 애월읍 광령리 30-3
460.0,제일빌리지,126.44483999999999,33.46068,제주특별자치도 제주시 애월읍 광령리 29-4
461.0,무수천,126.44859,33.461059999999996,제주특별자치도 제주시 해안동 2382-4
462.0,무수천,126.44866999999999,33.46137,제주특별자치도 제주시 해안동 2382-3
463.0,해안동입구,126.45115,33.462759999999996,제주특별자치도 제주시 해안동 2350-4
464.0,제주고등학교,126.48438999999999,33.47221,제주특별자치도 제주시 노형동 607-1
465.0,제주고등학교,126.48392,33.47433,제주특별자치도 제주시 노형동 768
466.0,화북남문,126.56598000000001,33.51858,제주특별자치도 제주시 화북일동 2034-7
467.0,제주동중학교,126.5723,33.52001,제주특별자치도 제주시 화북일동 1235-5
468.0,제주동중학교,126.57078,33.51958,제주특별자치도 제주시 화북일동 1239-11
469.0,원동,126.37917,33.39925,제주특별자치도 제주시 애월읍 상가리 10-3
470.0,원동,126.37917,33.40061,제주특별자치도 제주시 애월읍 상가리 4-4
471.0,운전면허시험장,126.38644,33.40595,제주특별자치도 제주시 애월읍 소길리 산 210-14
472.0,운전면허시험장,126.3862,33.40645,제주특별자치도 제주시 애월읍 소길리 산 195-12
473.0,유수암상동,126.40879,33.42269,제주특별자치도 제주시 애월읍 유수암리 1082-1
474.0,유수암상동,126.40795,33.42299000000001,제주특별자치도 제주시 애월읍 유수암리 1028-3
475.0,한화아파트,126.48308,33.47902,제주특별자치도 제주시 노형동 767
476.0,한라중학교/부영아파트,126.48383000000001,33.47887,제주특별자치도 제주시 노형동 767
477.0,한라초등학교,126.48629,33.479,제주특별자치도 제주시 노형동 767
478.0,대림2차아파트,126.488,33.479,제주특별자치도 제주시 연동 1399-1
479.0,대림2차아파트,126.48835,33.47885,제주특별자치도 제주시 연동 1546
480.0,연동대림1차아파트,126.48975,33.48028,제주특별자치도 제주시 연동 1546
481.0,연동대림1차아파트,126.48993,33.4807,제주특별자치도 제주시 연동 1546
482.0,신제주오피스텔,126.48996000000001,33.4832,제주특별자치도 제주시 연동 334
483.0,신제주오피스텔,126.48971999999999,33.4833,제주특별자치도 제주시 연동 268-5
484.0,신사수동,126.47751000000001,33.50874,제주특별자치도 제주시 도두이동 1667-12
485.0,신사수동,126.47713,33.50881,제주특별자치도 제주시 도두이동 1669-4
486.0,해안로,126.47231000000001,33.50932,제주특별자치도 제주시 도두일동 1734
487.0,해안로,126.47241000000001,33.509209999999996,제주특별자치도 제주시 도두일동 1687
488.0,오래물광장,126.46722,33.50486,제주특별자치도 제주시 도두일동 2605-7
489.0,오래물광장,126.46718,33.50501,제주특별자치도 제주시 도두일동 2605-5
490.0,도두동,126.46656000000002,33.50258,제주특별자치도 제주시 도두일동 2510-2
491.0,도리초등학교,126.46618000000001,33.50117,제주특별자치도 제주시 이호일동 304-1
492.0,도리초등학교,126.46585,33.50141,제주특별자치도 제주시 이호일동 1961
493.0,해안,126.45405,33.45896,제주특별자치도 제주시 해안동 1969-2
494.0,해안,126.45433999999999,33.45857,제주특별자치도 제주시 해안동 1970-1
495.0,해안동,126.45255,33.46275,제주특별자치도 제주시 해안동 2097-3
496.0,해안동입구,126.45299999999999,33.463159999999995,제주특별자치도 제주시 해안동 2793-1
497.0,제주아트리움,126.45606000000001,33.46559,제주특별자치도 제주시 해안동 2793
498.0,제주아트리움,126.45683000000001,33.46613,제주특별자치도 제주시 해안동 2170-4
499.0,제주제일고등학교,126.48156999999999,33.48055,제주특별자치도 제주시 노형동 768
500.0,제주제일고등학교,126.48196999999999,33.48008,제주특별자치도 제주시 노형동 768
501.0,한라수목원,126.48491000000001,33.469840000000005,제주특별자치도 제주시 노형동 103-4
502.0,하귀반석,126.40798999999998,33.47768,제주특별자치도 제주시 애월읍 상귀리 354-1
503.0,히귀반석,126.40786000000001,33.47755,제주특별자치도 제주시 애월읍 하귀2리 1286-1
504.0,광석동,126.40903999999999,33.47464,제주특별자치도 제주시 애월읍 상귀리 283-3
505.0,광석동,126.40888000000001,33.47445,제주특별자치도 제주시 애월읍 상귀리 382-1
506.0,상귀리,126.40919,33.472,제주특별자치도 제주시 애월읍 상귀리 106-2
507.0,상귀리,126.40911000000001,33.47202,제주특별자치도 제주시 애월읍 상귀리 538-3
508.0,소앵동입구,126.40829,33.46945,제주특별자치도 제주시 애월읍 상귀리 556-1
509.0,소앵동입구,126.4081,33.46927,제주특별자치도 제주시 애월읍 상귀리 1576
510.0,보로미마을,126.40911000000001,33.46545,제주특별자치도 제주시 애월읍 상귀리 679-3
511.0,보로미마을,126.40936,33.46545,제주특별자치도 제주시 애월읍 고성리 1579
512.0,평화로광령1리입구,126.44179,33.4558,제주특별자치도 제주시 애월읍 광령리 103-1
513.0,평화로광령1리입구,126.44278999999999,33.455659999999995,제주특별자치도 제주시 애월읍 광령리 108-4
514.0,해병대아파트입구,126.4971,33.48045,제주특별자치도 제주시 연동 524-6
515.0,해병대아파트입구,126.4973,33.48036,제주특별자치도 제주시 연동 524-23
516.0,월정사,126.51052,33.46778,제주특별자치도 제주시 오라이동 664-4
517.0,월정사,126.51045,33.467620000000004,제주특별자치도 제주시 오라이동 664-25
518.0,정실마을,126.50971000000001,33.46918,제주특별자치도 제주시 오라이동 696-18
519.0,정실,126.50967,33.46962,제주특별자치도 제주시 오라이동 707-4
520.0,오름가름,126.50787,33.47165,제주특별자치도 제주시 오라이동 744-2
521.0,오름가름,126.50816,33.47169,제주특별자치도 제주시 오라이동 739-3
522.0,새가름,126.50413999999999,33.47325,제주특별자치도 제주시 오라이동 3295-3
523.0,새가름,126.50397,33.47347,제주특별자치도 제주시 오라이동 3295-1
524.0,예비군훈련장,126.50166999999999,33.47517,제주특별자치도 제주시 연동 584-2
525.0,예비군훈련장,126.5017,33.47535,제주특별자치도 제주시 연동 2477-36
526.0,대원오등동입구,126.54291,33.47762,제주특별자치도 제주시 아라일동 2999
528.0,대원마을,126.5345,33.4765,제주특별자치도 제주시 아라일동 2738-9
529.0,대원마을,126.53473999999999,33.476440000000004,제주특별자치도 제주시 아라일동 2744-2
530.0,장구마을,126.53248,33.47637,제주특별자치도 제주시 아라일동 2905-5
531.0,장구마을,126.53203,33.47531,제주특별자치도 제주시 아라일동 2894-4
532.0,오등동,126.5298,33.47527,제주특별자치도 제주시 오등동 604-2
533.0,오등동,126.52941000000001,33.47514,제주특별자치도 제주시 오등동 619-5
534.0,오봉교,126.52627,33.474740000000004,제주특별자치도 제주시 오등동 1366-4
535.0,오봉교,126.52636000000001,33.47466,제주특별자치도 제주시 오등동 1366-3
536.0,진평연립입구,126.5222,33.47055,제주특별자치도 제주시 오등동 1555-3
537.0,진평연립입구,126.52233000000001,33.47053,제주특별자치도 제주시 오등동 1899
538.0,GM빌라,126.52078999999999,33.46673,제주특별자치도 제주시 오등동 1678-2
539.0,GM빌라,126.52081000000001,33.46663,제주특별자치도 제주시 오등동 1899
540.0,온난화대응농업연구소,126.51863,33.466879999999996,제주특별자치도 제주시 오등동 1899
541.0,온난화대응농업연구소,126.51928999999998,33.46676,제주특별자치도 제주시 오등동 1720-1
542.0,정실오거리,126.51448,33.467079999999996,제주특별자치도 제주시 오라이동 44-5
543.0,정실오거리,126.51363,33.46723,제주특별자치도 제주시 오라이동 73-2
544.0,신성여자중고등학교,126.56175,33.47808,제주특별자치도 제주시 영평동 2407-2
545.0,신성여자중고등학교,126.56138999999999,33.4781,제주특별자치도 제주시 영평동 2408-2
546.0,제주교통방송아라아이파크,126.54936000000001,33.47763,제주특별자치도 제주시 아라일동 884-3
547.0,제주교통방송아라아이파크,126.54931,33.47783,제주특별자치도 제주시 아라이동 914-7
548.0,아라초등학교,126.5447,33.47748,제주특별자치도 제주시 아라이동 3030
549.0,영평상동마을회관,126.56822,33.476659999999995,제주특별자치도 제주시 영평동 1878-10
550.0,영평상동마을회관,126.56823999999999,33.47679,제주특별자치도 제주시 영평동 1878-15
551.0,영평동,126.56325,33.47931,제주특별자치도 제주시 영평동 2444-5
552.0,영평동,126.5635,33.47916,제주특별자치도 제주시 영평동 2444-5
553.0,제주관광대학,126.4352,33.44742,제주특별자치도 제주시 애월읍 광령리 2613-6
554.0,제주관광대학,126.43653,33.447309999999995,제주특별자치도 제주시 애월읍 광령리 4227
555.0,월평마을,126.57518999999999,33.46976,제주특별자치도 제주시 월평동 1039-1
556.0,제주중앙고등학교,126.57128,33.47149,제주특별자치도 제주시 월평동 1138-5
557.0,제주중앙고등학교,126.57158000000001,33.47162,제주특별자치도 제주시 월평동 1141-2
558.0,반석아파트,126.59026999999999,33.48795,제주특별자치도 제주시 봉개동 2374-2
559.0,반석주택,126.58981000000001,33.48765,제주특별자치도 제주시 봉개동 2351-9
560.0,대용소천,126.59026999999999,33.48101,제주특별자치도 제주시 용강동 560
561.0,대용소천,126.59013999999999,33.48093,제주특별자치도 제주시 용강동 1768
562.0,용강동,126.58613999999999,33.47916,제주특별자치도 제주시 용강동 1556-1
563.0,용강동,126.58611,33.47929,제주특별자치도 제주시 용강동 1559-2
564.0,용강동퐁낭밭,126.58405,33.47118,제주특별자치도 제주시 용강동 1184-3
565.0,용강동퐁낭밭,126.58424,33.47133,제주특별자치도 제주시 용강동 1184-2
566.0,시각장애인복지관,126.58098999999999,33.470459999999996,제주특별자치도 제주시 월평동 464-1
567.0,시각장애인복지관,126.58068,33.47072,제주특별자치도 제주시 월평동 419-4
568.0,황사평,126.56353,33.49458,제주특별자치도 제주시 화북이동 5755-1
569.0,황사평,126.56367,33.49457,제주특별자치도 제주시 화북이동 2951-1
570.0,반석주택,126.57113000000001,33.48216,제주특별자치도 제주시 영평동 2795
571.0,반석주택,126.57108999999998,33.48207,제주특별자치도 제주시 영평동 791-1
572.0,월광로,126.47425,33.49221,제주특별자치도 제주시 노형동 1156-3
573.0,월광로,126.47537,33.4932,제주특별자치도 제주시 노형동 1137
574.0,월광로,126.4692,33.48833,제주특별자치도 제주시 노형동 2572
575.0,월광로,126.46891000000001,33.4877,제주특별자치도 제주시 노형동 2572
576.0,광평,126.46808,33.48397,제주특별자치도 제주시 노형동 2431-5
577.0,광평,126.46841,33.48389,제주특별자치도 제주시 노형동 2598-5
578.0,광평동로노형성당,126.47041999999999,33.48207,제주특별자치도 제주시 노형동 2598-5
579.0,광평동로,126.47038,33.4823,제주특별자치도 제주시 노형동 2598-5
580.0,오광로,126.461,33.48525,제주특별자치도 제주시 노형동 3740-3
581.0,오광로,126.46056999999999,33.485659999999996,제주특별자치도 제주시 노형동 3744-1
582.0,오도마을,126.45767,33.4909,제주특별자치도 제주시 이호이동 1023-7
583.0,오도마을,126.45737,33.49107,제주특별자치도 제주시 이호이동 1380-2
584.0,갈왓,126.45623,33.49331,제주특별자치도 제주시 이호이동 1553-2
585.0,갈왓,126.45589,33.49366,제주특별자치도 제주시 이호이동 1553-4
586.0,오라오거리,126.50465,33.500029999999995,제주특별자치도 제주시 용담이동 2756-5
588.0,우당도서관,126.54815,33.51231,제주특별자치도 제주시 건입동 261
589.0,큰동네,126.59697,33.48923,제주특별자치도 제주시 봉개동 1878-1
590.0,큰동네,126.59628000000001,33.48949,제주특별자치도 제주시 봉개동 1883-1
591.0,원노형,126.47993000000001,33.48467,제주특별자치도 제주시 노형동 3816
592.0,화북초등학교,126.56241000000001,33.5177,제주특별자치도 제주시 화북일동 3806-3
593.0,매촌,126.58856000000002,33.517959999999995,제주특별자치도 제주시 도련이동 522-10
594.0,매촌,126.58873,33.51788,제주특별자치도 제주시 도련이동 522-3
595.0,연동입구,126.49701,33.49625,제주특별자치도 제주시 연동 115-4
596.0,원노형,126.48076,33.48345,제주특별자치도 제주시 노형동 948
597.0,금천마을,126.55343,33.47864000000001,제주특별자치도 제주시 아라이동 943-4
598.0,금천마을,126.55348000000001,33.47849,제주특별자치도 제주시 아라이동 943-4
600.0,은혜마을종점,126.615,33.46522,제주특별자치도 제주시 봉개동 227-66
601.0,동회천,126.61536000000001,33.504129999999996,제주특별자치도 제주시 회천동 1284
602.0,삼양종점,126.59147,33.52843,제주특별자치도 제주시 삼양일동 1588-1
603.0,삼양종점,126.59131000000001,33.52852,제주특별자치도 제주시 삼양일동 1583-13
604.0,삼양1동,126.59,33.52763,제주특별자치도 제주시 삼양일동 1581-29
605.0,삼양해수욕장입구,126.58786,33.52618,제주특별자치도 제주시 삼양일동 1669-1
606.0,해오름아파트,126.48638000000001,33.4818,제주특별자치도 제주시 노형동 767
607.0,한마음선원입구,126.57048,33.48911,제주특별자치도 제주시 영평동 1042-2
608.0,영평하동,126.57332,33.486940000000004,제주특별자치도 제주시 영평동 927-2
609.0,영평하동,126.57315,33.48685,제주특별자치도 제주시 영평동 2795
610.0,함덕5구,126.67596,33.534259999999996,제주특별자치도 제주시 조천읍 함덕리 72-5
612.0,청화마을입구,126.43012,33.456140000000005,제주특별자치도 제주시 애월읍 광령리 3313-2
613.0,광령3리사무소,126.42336,33.46387,제주특별자치도 제주시 애월읍 광령리 3798-9
616.0,광령3리사무소,126.42347,33.46301,제주특별자치도 제주시 애월읍 광령리 3857-1
617.0,함덕5구,126.67593000000001,33.533640000000005,제주특별자치도 제주시 조천읍 함덕리 72-80
619.0,성지요양원,126.43761,33.48342,제주특별자치도 제주시 외도일동 127-6
620.0,다호마을,126.49625,33.50458,제주특별자치도 제주시 용담이동 1596-12
621.0,제주국제공항입구,126.49647,33.50461,제주특별자치도 제주시 용담이동 1588-5
622.0,백록초등학교,126.47151000000001,33.485409999999995,제주특별자치도 제주시 노형동 2598-3
623.0,백록초등학교,126.47065,33.48458,제주특별자치도 제주시 노형동 2511-2
624.0,큰구릉내,126.41543,33.48707,제주특별자치도 제주시 애월읍 하귀1리 115
625.0,한국방송통신대학,126.47341000000002,33.48672,제주특별자치도 제주시 노형동 2615-4
626.0,정든마을,126.47406000000001,33.48745,제주특별자치도 제주시 노형동 2598-2
627.0,몰래물,126.48218,33.510490000000004,제주특별자치도 제주시 도두이동 701
628.0,한라수목원,126.48473999999999,33.46991,제주특별자치도 제주시 노형동 103-4
629.0,연동입구,126.49673999999999,33.496179999999995,제주특별자치도 제주시 연동 115-4
631.0,공항초소,126.48435,33.51362,제주특별자치도 제주시 용담삼동 2580-55
632.0,성지요양원,126.43866000000001,33.48274,제주특별자치도 제주시 외도일동 107-1
633.0,도평마을입구,126.45088,33.479929999999996,제주특별자치도 제주시 도평동 814-3
634.0,도평동,126.45126,33.480129999999996,제주특별자치도 제주시 도평동 779
635.0,공항초소,126.48456999999999,33.51358,제주특별자치도 제주시 용담삼동 1286-5
637.0,월성마을,126.50338,33.50419,제주특별자치도 제주시 용담이동 750-12
638.0,제주국제공항(구제주방면),126.49345,33.506609999999995,제주특별자치도 제주시 용담이동 1462-1
639.0,대동마을,126.46378999999999,33.494609999999994,제주특별자치도 제주시 이호이동 209-4
640.0,대동마을,126.46378999999999,33.49445,제주특별자치도 제주시 이호이동 201-12
641.0,외도부영1차아파트,126.43083,33.48675,제주특별자치도 제주시 외도일동 646-1
643.0,거로복지회관,126.56113,33.508340000000004,제주특별자치도 제주시 화북이동 3378-4
644.0,거로입구,126.56238,33.50496,제주특별자치도 제주시 화북이동 3283-6
645.0,용강마을,126.58553,33.4757,제주특별자치도 제주시 용강동 1257-2
646.0,용강동,126.58537,33.47567,제주특별자치도 제주시 용강동 1316-3
647.0,용강동대합실,126.58617,33.47842,제주특별자치도 제주시 용강동 1777
648.0,용강동대합실,126.58601999999999,33.478359999999995,제주특별자치도 제주시 용강동 1492-4
649.0,봉개남문,126.59063,33.49042,제주특별자치도 제주시 봉개동 2482-4
650.0,봉개남문,126.59078000000001,33.49042,제주특별자치도 제주시 봉개동 2409-11
651.0,봉개동,126.59245,33.49151,제주특별자치도 제주시 봉개동 1945-2
652.0,봉개동,126.59275,33.49154,제주특별자치도 제주시 봉개동 1812-9
653.0,대한목공소,126.59526000000001,33.499340000000004,제주특별자치도 제주시 도련일동 1182-1
654.0,대한목공소,126.59518,33.49927,제주특별자치도 제주시 도련일동 1182-2
655.0,한마음선원입구,126.57027,33.48919,제주특별자치도 제주시 영평동 1497-1
656.0,거로입구,126.56226000000001,33.50493,제주특별자치도 제주시 화북이동 5756
657.0,거로복지회관,126.5608,33.508590000000005,제주특별자치도 제주시 화북이동 3347-4
658.0,거로마을,126.56116000000002,33.50953,제주특별자치도 제주시 화북이동 3472-1
659.0,우당도서관입구,126.54517,33.51262,제주특별자치도 제주시 건입동 607-3
662.0,월평마을,126.57538999999998,33.46968,제주특별자치도 제주시 월평동 1038-3
663.0,전원유치원,126.53966000000001,33.48724,제주특별자치도 제주시 아라일동 2470-4
664.0,전원유치원,126.53985,33.48717,제주특별자치도 제주시 아라일동 2470-4
665.0,선덕어린이집,126.51248000000001,33.48101,제주특별자치도 제주시 오라이동 1618-2
666.0,사평마을입구,126.51127,33.48134,제주특별자치도 제주시 오라이동 1770-3
667.0,민오름,126.50168000000001,33.48142,제주특별자치도 제주시 오라이동 3161-2
668.0,민오름,126.50046999999999,33.481759999999994,제주특별자치도 제주시 연동 440-2
669.0,신산마을주차장,126.44973999999999,33.4895,제주특별자치도 제주시 내도동 60-20
670.0,이도2동행정복지센터,126.5364,33.4965,제주특별자치도 제주시 이도이동 1085-4
671.0,경제통상진흥원,126.54047,33.498870000000004,제주특별자치도 제주시 이도이동 444
672.0,한라일보,126.51966000000002,33.49857,제주특별자치도 제주시 삼도일동 568-1
673.0,게이트볼장,126.51963,33.49475,제주특별자치도 제주시 오라일동 1076-1
674.0,게이트볼장,126.51987,33.49492,제주특별자치도 제주시 오라일동 1076-1
675.0,한라일보,126.51987,33.4986,제주특별자치도 제주시 삼도일동 585-26
676.0,경제통상진흥원,126.5403,33.49908,제주특별자치도 제주시 이도이동 444
677.0,이도2동행정복지센터,126.53546000000001,33.496109999999994,제주특별자치도 제주시 이도이동 1085-4
678.0,서부경찰서,126.40666999999999,33.47293,제주특별자치도 제주시 애월읍 상귀리 419-6
679.0,서부경찰서,126.40671999999999,33.47278,제주특별자치도 제주시 애월읍 상귀리 419-6
680.0,주르레마을,126.48651000000001,33.45039000000001,제주특별자치도 제주시 노형동 291-20
681.0,주르레마을,126.48625,33.44968,제주특별자치도 제주시 노형동 3762-4
682.0,하귀2리,126.39974,33.47878,제주특별자치도 제주시 애월읍 하귀2리 1931-3
683.0,하귀2리,126.39952,33.47874,제주특별자치도 제주시 애월읍 하귀2리 1956-6
684.0,귀일중학교,126.40512,33.48121,제주특별자치도 제주시 애월읍 하귀2리 1384-16
685.0,귀일중학교,126.40545,33.480979999999995,제주특별자치도 제주시 애월읍 하귀2리 3016
688.0,신제주초등학교,126.49632,33.48505,제주특별자치도 제주시 연동 304
689.0,광령2리입구,126.4306,33.45929,제주특별자치도 제주시 애월읍 광령리 2289-5
690.0,광령2리입구,126.43123,33.459509999999995,제주특별자치도 제주시 애월읍 광령리 2287-2
691.0,원노형,126.48355,33.48598,제주특별자치도 제주시 노형동 949
692.0,메종글래드제주,126.48743999999999,33.485859999999995,제주특별자치도 제주시 연동 253-1
693.0,봉개워터파크,126.60146999999999,33.4864,제주특별자치도 제주시 봉개동 1336-4
694.0,6호광장,126.5486,33.511070000000004,제주특별자치도 제주시 건입동 602-22
695.0,6호광장,126.54923000000001,33.51099,제주특별자치도 제주시 화북이동 4870-4
696.0,제주대학교입구,126.55105,33.45673,제주특별자치도 제주시 아라일동 426-10
698.0,당동,126.3841,33.46856,제주특별자치도 제주시 애월읍 수산리 1778-2
699.0,당동,126.38428,33.46843,제주특별자치도 제주시 애월읍 수산리 1778-1
700.0,하귀하나로마트,126.41106,33.4848,제주특별자치도 제주시 애월읍 하귀1리 549-16
702.0,금악리,126.29466000000001,33.35743,제주특별자치도 제주시 한림읍 금악리 1896-7
703.0,평대,126.83915,33.528690000000005,제주특별자치도 제주시 구좌읍 평대리 1716-6
704.0,예원동,126.4033,33.45625,제주특별자치도 제주시 애월읍 상귀리 1100-3
707.0,만장굴입구,126.77826999999999,33.54918,제주특별자치도 제주시 구좌읍 월정리 1841-3
708.0,선인동,126.69963,33.48527,제주특별자치도 제주시 조천읍 선흘리 3980-1
709.0,승준농원,126.40645,33.44838,제주특별자치도 제주시 애월읍 유수암리 502-5
710.0,승준농원,126.40621999999999,33.44845,제주특별자치도 제주시 애월읍 유수암리 503-1
711.0,항몽유적지,126.40825,33.452329999999996,제주특별자치도 제주시 애월읍 상귀리 1012
712.0,항몽유적지,126.40858999999999,33.45243,제주특별자치도 제주시 애월읍 상귀리 1010-2
713.0,예원동민회관앞,126.39941,33.45898,제주특별자치도 제주시 애월읍 수산리 34-1
714.0,예원동민회관앞,126.39933,33.45899,제주특별자치도 제주시 애월읍 수산리 25-14
716.0,소길리사무소,126.37975,33.43995,제주특별자치도 제주시 애월읍 소길리 627-2
717.0,소길리,126.37913999999999,33.44121,제주특별자치도 제주시 애월읍 장전리 1797
718.0,유수암상동경로당,126.40505,33.422940000000004,제주특별자치도 제주시 애월읍 유수암리 1060-10
719.0,유수암리사무소,126.40328999999998,33.44143,제주특별자치도 제주시 애월읍 유수암리 3234
720.0,유수암천,126.40066000000002,33.443000000000005,제주특별자치도 제주시 애월읍 유수암리 1931-3
721.0,유수암천,126.40012,33.44313,제주특별자치도 제주시 애월읍 유수암리 1978-1
722.0,용흥리상동,126.36997,33.455729999999996,제주특별자치도 제주시 애월읍 신엄리 1791-1
723.0,용흥리상동,126.37002,33.45592,제주특별자치도 제주시 애월읍 신엄리 1873-14
724.0,용흥리마을회관,126.3695,33.4589,제주특별자치도 제주시 애월읍 신엄리 1753-3
725.0,용흥리마을회관,126.3695,33.459109999999995,제주특별자치도 제주시 애월읍 신엄리 1655-10
726.0,용흥리하동,126.3686,33.4619,제주특별자치도 제주시 애월읍 신엄리 1729-2
727.0,용흥리하동,126.36873,33.4621,제주특별자치도 제주시 애월읍 신엄리 1686-11
728.0,명월하동,126.26078999999999,33.39607,제주특별자치도 제주시 한림읍 명월리 2087-5
729.0,명월리,126.26647,33.38705,제주특별자치도 제주시 한림읍 명월리 1767-1
730.0,명월리,126.26597,33.38942,제주특별자치도 제주시 한림읍 명월리 2227
731.0,명월리,126.26611000000001,33.38989,제주특별자치도 제주시 한림읍 명월리 2223
732.0,남문동,126.26348999999999,33.39655,제주특별자치도 제주시 한림읍 동명리 2216-1
733.0,명월하동,126.26337,33.39659,제주특별자치도 제주시 한림읍 명월리 2237
734.0,진근동,126.26356000000001,33.40412,제주특별자치도 제주시 한림읍 동명리 1976
735.0,진근동,126.26397,33.40435,제주특별자치도 제주시 한림읍 동명리 1972
736.0,명월하동,126.25981000000002,33.397259999999996,제주특별자치도 제주시 한림읍 옹포리 983
737.0,한림고등학교,126.25841000000001,33.39918,제주특별자치도 제주시 한림읍 옹포리 983
738.0,한림고등학교,126.25856999999999,33.39915,제주특별자치도 제주시 한림읍 옹포리 819-3
745.0,알진오름입구,126.78413,33.47691,제주특별자치도 제주시 구좌읍 송당리 895-1
746.0,알진오름입구,126.78416999999999,33.47724,제주특별자치도 제주시 구좌읍 송당리 895-2
747.0,비자림,126.81034,33.493179999999995,제주특별자치도 제주시 구좌읍 평대리 3344
748.0,비자림,126.81043000000001,33.49334,제주특별자치도 제주시 구좌읍 평대리 3187
749.0,조수리,126.22831000000001,33.33576,제주특별자치도 제주시 한경면 조수리 315
750.0,조수1리,126.2279,33.33783,제주특별자치도 제주시 한경면 조수리 437-7
751.0,제주서부신협,126.25301999999999,33.32703,제주특별자치도 제주시 한경면 저지리 1521-21
752.0,조수1리중동,126.22673999999999,33.33415,제주특별자치도 제주시 한경면 조수리 1455-2
753.0,한원리,126.20038000000001,33.334,제주특별자치도 제주시 한경면 두모리 1360-5
754.0,한원리,126.20042,33.3341,제주특별자치도 제주시 한경면 두모리 731-1
755.0,한경면사무소,126.18388,33.34993,제주특별자치도 제주시 한경면 신창리 252-3
756.0,신창상동,126.18733,33.34838,제주특별자치도 제주시 한경면 신창리 1481
757.0,신창상동,126.18753000000001,33.3482,제주특별자치도 제주시 한경면 신창리 1481
758.0,신창리하나로마트한경농협,126.18998,33.34693,제주특별자치도 제주시 한경면 신창리 21-6
759.0,복호동,126.19657,33.33743,제주특별자치도 제주시 한경면 두모리 1426-6
760.0,한원리,126.19715,33.33553,제주특별자치도 제주시 한경면 두모리 1453-4
761.0,낙천리,126.22701,33.32597,제주특별자치도 제주시 한경면 낙천리 1972
762.0,조수1리,126.2288,33.33578,제주특별자치도 제주시 한경면 조수리 317-7
764.0,조수1리,126.23243000000001,33.33628,제주특별자치도 제주시 한경면 조수리 326-13
765.0,조수1리,126.23277,33.33643,제주특별자치도 제주시 한경면 조수리 4146
766.0,저지리수동,126.23623,33.33682,제주특별자치도 제주시 한경면 저지리 1215-2
767.0,저지리수동,126.23625,33.3369,제주특별자치도 제주시 한경면 저지리 1215-4
769.0,저지리수동,126.23879,33.33745,제주특별자치도 제주시 한경면 저지리 1313-1
770.0,평화동,126.25943000000001,33.309509999999996,제주특별자치도 제주시 한경면 청수리 3389
771.0,청수리평화동,126.25933,33.30955,제주특별자치도 제주시 한경면 청수리 3389
772.0,청수리,126.25842,33.306909999999995,제주특별자치도 제주시 한경면 청수리 188-2
773.0,청수리,126.25832,33.30685,제주특별자치도 제주시 한경면 청수리 154-2
775.0,산양곶자왈,126.2508,33.2908,제주특별자치도 제주시 한경면 청수리 955-2
776.0,산양리,126.23398,33.295590000000004,제주특별자치도 제주시 한경면 청수리 3338
777.0,산양리,126.23398,33.29575,제주특별자치도 제주시 한경면 낙천리 810-1
778.0,조수2리웃동네,126.21996999999999,33.29677,제주특별자치도 제주시 한경면 조수리 3771-1
779.0,조수2리윗동네,126.21961,33.296859999999995,제주특별자치도 제주시 한경면 조수리 3739-12
780.0,조수2리,126.21763,33.29585,제주특별자치도 제주시 한경면 조수리 4146
781.0,조수2리,126.21738,33.29557,제주특별자치도 제주시 한경면 조수리 4007-13
782.0,조수2리,126.2145,33.29397,제주특별자치도 제주시 한경면 조수리 3959-2
783.0,조수2리,126.21433,33.29371,제주특별자치도 제주시 한경면 조수리 3961-2
784.0,고산2리전답동,126.20397,33.29505,제주특별자치도 제주시 한경면 고산리 252-1
785.0,칠전동,126.19465,33.29773,제주특별자치도 제주시 한경면 고산리 1717-4
786.0,고산환승정류장(고산1리),126.18043999999999,33.30073,제주특별자치도 제주시 한경면 고산리 2919-8
787.0,한장동,126.16763,33.2904,제주특별자치도 제주시 한경면 고산리 3822-8
788.0,한장동,126.16752,33.290420000000005,제주특별자치도 제주시 한경면 고산리 3817-4
789.0,한장동,126.16748,33.28788,제주특별자치도 제주시 한경면 고산리 3872-4
790.0,한장동,126.16783000000001,33.28747,제주특별자치도 제주시 한경면 고산리 3874-2
793.0,구시장터,126.32503,33.435179999999995,제주특별자치도 제주시 애월읍 납읍리 2384-10
794.0,구몰리동,126.31562,33.42473,제주특별자치도 제주시 애월읍 봉성리 3408-4
795.0,금능석물원,126.22633,33.385909999999996,제주특별자치도 제주시 한림읍 금능리 1282-4
796.0,조수1리,126.228,33.3378,제주특별자치도 제주시 한경면 조수리 437-13
797.0,조수1리중동,126.227,33.3342,제주특별자치도 제주시 한경면 조수리 1477-5
798.0,낙천리,126.22716000000001,33.32606,제주특별자치도 제주시 한경면 낙천리 1973-3
799.0,한원리,126.1973,33.33533,제주특별자치도 제주시 한경면 두모리 1383-3
800.0,복호동입구,126.19668,33.3365,제주특별자치도 제주시 한경면 두모리 3023
801.0,신창리농산물종합유통센터,126.19091999999999,33.34664,제주특별자치도 제주시 한경면 신창리 1481
802.0,한경면사무소,126.18373000000001,33.34985,제주특별자치도 제주시 한경면 신창리 256
803.0,목선동,126.71828000000001,33.48999,제주특별자치도 제주시 조천읍 선흘리 337-49
804.0,산남내,126.77588,33.471059999999994,제주특별자치도 제주시 구좌읍 송당리 1572-11
805.0,송당초등학교,126.77986999999999,33.471779999999995,제주특별자치도 제주시 구좌읍 송당리 1271-1
806.0,신선동,126.69925,33.51222,제주특별자치도 제주시 조천읍 선흘리 2503-1
809.0,어음2리사무소,126.33663,33.40122,제주특별자치도 제주시 애월읍 어음리 3010-1
810.0,어음2리,126.3384,33.40255,제주특별자치도 제주시 애월읍 어음리 3902
812.0,계원동,126.33407,33.40975,제주특별자치도 제주시 애월읍 어음리 3902
813.0,계원동,126.33383,33.41005,제주특별자치도 제주시 애월읍 어음리 3462-4
814.0,부면동,126.33278,33.41553,제주특별자치도 제주시 애월읍 어음리 3628-3
815.0,부면동,126.33267,33.41603,제주특별자치도 제주시 애월읍 어음리 3627-2
816.0,어음1리사무소,126.3307,33.41722,제주특별자치도 제주시 애월읍 어음리 3646-2
817.0,어음1리사무소,126.33062,33.4175,제주특별자치도 제주시 애월읍 어음리 3667-1
818.0,신명동,126.32083,33.41857,제주특별자치도 제주시 애월읍 봉성리 1969-1
819.0,신명동,126.3207,33.41863,제주특별자치도 제주시 애월읍 봉성리 1969-11
822.0,동명리,126.26568999999999,33.4098,제주특별자치도 제주시 한림읍 동명리 1591-16
823.0,한림2리,126.26605,33.409240000000004,제주특별자치도 제주시 한림읍 한림리 1582
824.0,한림발전소,126.27083999999999,33.4017,제주특별자치도 제주시 한림읍 동명리 666-2
825.0,한림발전소,126.27131999999999,33.40161,제주특별자치도 제주시 한림읍 동명리 656-1
826.0,동명리한천동,126.27426000000001,33.39448,제주특별자치도 제주시 한림읍 동명리 826-5
827.0,한천동,126.2746,33.39465,제주특별자치도 제주시 한림읍 동명리 820-1
828.0,양돈단지,126.3083,33.360279999999996,제주특별자치도 제주시 한림읍 금악리 1153-2
829.0,양돈단지,126.30877,33.359970000000004,제주특별자치도 제주시 한림읍 금악리 1159-2
830.0,송당상동,126.77311999999999,33.467209999999994,제주특별자치도 제주시 구좌읍 송당리 1579-1
831.0,송당상동,126.77277,33.46638,제주특별자치도 제주시 구좌읍 송당리 1882-2
832.0,만장굴,126.77188000000001,33.53098,제주특별자치도 제주시 구좌읍 월정리 산 37
835.0,혜정원아가의집,126.67783999999999,33.51625,제주특별자치도 제주시 조천읍 함덕리 52-5
836.0,혜정원아가의집,126.67768000000001,33.51623,제주특별자치도 제주시 조천읍 함덕리 산 75
839.0,선인동,126.69973,33.48583,제주특별자치도 제주시 조천읍 선흘리 2092-1
840.0,선인동,126.69963,33.4859,제주특별자치도 제주시 조천읍 선흘리 2092-1
841.0,양잠단지,126.70291999999999,33.4588,제주특별자치도 제주시 조천읍 선흘리 1946-1
842.0,선흘2리,126.71153000000001,33.45835,제주특별자치도 제주시 조천읍 선흘리 469-6
843.0,선흘2리,126.7117,33.45851,제주특별자치도 제주시 조천읍 선흘리 470-2
845.0,대흘2리,126.67299999999999,33.51155,제주특별자치도 제주시 조천읍 대흘리 2787
846.0,대흘2리,126.67318,33.5117,제주특별자치도 제주시 조천읍 대흘리 120-3
847.0,대흘2리,126.67643000000001,33.51267,제주특별자치도 제주시 조천읍 대흘리 산 6-5
848.0,대흘2리새동네,126.67645,33.512879999999996,제주특별자치도 제주시 조천읍 대흘리 산 6-5
851.0,와흘리,126.63582,33.50445,제주특별자치도 제주시 조천읍 와흘리 1479-2
852.0,와흘리,126.63608,33.50455,제주특별자치도 제주시 조천읍 와흘리 1434-4
853.0,신안동,126.63523,33.51007,제주특별자치도 제주시 조천읍 신촌리 4005
854.0,신안동,126.63498,33.51037,제주특별자치도 제주시 조천읍 신촌리 201-2
855.0,신안동,126.63535,33.51695,제주특별자치도 제주시 조천읍 신촌리 319
856.0,신안동,126.63563,33.517340000000004,제주특별자치도 제주시 조천읍 조천리 1886
857.0,금붕사,126.8908,33.50075,제주특별자치도 제주시 구좌읍 종달리 1659-44
858.0,동복리휴게소,126.70765,33.5535,제주특별자치도 제주시 구좌읍 동복리 1759
859.0,동성동,126.75453,33.55577,제주특별자치도 제주시 구좌읍 김녕리 1206-4
860.0,구좌보건소,126.85982,33.51992,제주특별자치도 제주시 구좌읍 세화리 1361
861.0,종달리,126.89617,33.49495,제주특별자치도 제주시 구좌읍 종달리 4982
862.0,하도리서문동,126.87131000000001,33.51983,제주특별자치도 제주시 구좌읍 하도리 3281-4
863.0,세화환승정류장(세화리),126.85556000000001,33.523379999999996,제주특별자치도 제주시 구좌읍 세화리 1421-15
865.0,용당리,126.182,33.3346,제주특별자치도 제주시 한경면 용수리 1025
866.0,용수리충혼묘지,126.17811999999999,33.320859999999996,제주특별자치도 제주시 한경면 용수리 4719-1
867.0,신흥동,126.18206,33.34061,제주특별자치도 제주시 한경면 용수리 1242-6
868.0,구한경의원앞,126.18241,33.34385,제주특별자치도 제주시 한경면 신창리 660-4
869.0,신창중학교,126.18271000000001,33.34737,제주특별자치도 제주시 한경면 신창리 492-1
870.0,판포리상동,126.20419,33.36768,제주특별자치도 제주시 한경면 판포리 3182
871.0,곽지모물,126.30875,33.45319,제주특별자치도 제주시 애월읍 곽지리 1549-4
872.0,자운당,126.3568,33.4676,제주특별자치도 제주시 애월읍 신엄리 3064-4
873.0,금붕사,126.89051,33.500659999999996,제주특별자치도 제주시 구좌읍 종달리 1659-45
874.0,제일교동문시장입구,126.53175,33.51235,제주특별자치도 제주시 일도이동 1050-1
875.0,신산로,126.53375,33.507909999999995,제주특별자치도 제주시 일도이동 823-3
876.0,문예회관,126.53568999999999,33.50495,제주특별자치도 제주시 일도이동 852
877.0,용당리,126.18177,33.333290000000005,제주특별자치도 제주시 한경면 용수리 4719-1
878.0,신창환승정류장(한경면사무소),126.18333999999999,33.35053,제주특별자치도 제주시 한경면 두모리 3023-8
879.0,남조로검문소,126.65976,33.46887,제주특별자치도 제주시 조천읍 와흘리 산 12-9
881.0,대흘초등학교,126.65745,33.49902,제주특별자치도 제주시 조천읍 대흘리 1655-4
882.0,대흘리,126.65906000000001,33.49822,제주특별자치도 제주시 조천읍 대흘리 1602-3
883.0,대흘리,126.65895,33.49827,제주특별자치도 제주시 조천읍 대흘리 1649-1
884.0,제일농장앞,126.6638,33.49438,제주특별자치도 제주시 조천읍 대흘리 1047-3
885.0,제일농장앞,126.66426000000001,33.49431,제주특별자치도 제주시 조천읍 대흘리 1029-2
886.0,제일농장,126.66832,33.49305,제주특별자치도 제주시 조천읍 대흘리 1075-12
887.0,와산리,126.67908,33.49147,제주특별자치도 제주시 조천읍 와산리 1079-5
888.0,와산리,126.6801,33.49192,제주특별자치도 제주시 조천읍 와산리 1077-3
889.0,와산리,126.6822,33.49152,제주특별자치도 제주시 조천읍 와산리 966-4
890.0,목선동,126.71815,33.4897,제주특별자치도 제주시 조천읍 선흘리 338-1
891.0,선흘목선동,126.71838999999999,33.48944,제주특별자치도 제주시 조천읍 선흘리 338-2
892.0,상덕천,126.74663000000001,33.4837,제주특별자치도 제주시 구좌읍 덕천리 1188
893.0,상덕천마을입구,126.74691999999999,33.48366,제주특별자치도 제주시 구좌읍 덕천리 1230-2
894.0,상덕천리,126.75143999999999,33.48108,제주특별자치도 제주시 구좌읍 덕천리 1316-10
895.0,상덕천리,126.75153999999999,33.481190000000005,제주특별자치도 제주시 구좌읍 덕천리 1289-2
896.0,웃송당,126.77146,33.47129,제주특별자치도 제주시 구좌읍 송당리 2791
897.0,웃송당,126.7717,33.47102,제주특별자치도 제주시 구좌읍 송당리 1655-1
898.0,산남내,126.77588999999999,33.47094,제주특별자치도 제주시 구좌읍 송당리 1572-13
899.0,송당초등학교,126.77923,33.47184,제주특별자치도 제주시 구좌읍 송당리 1272-1
900.0,송당로타리,126.78397,33.47157,제주특별자치도 제주시 구좌읍 송당리 1375-2
901.0,송당로타리,126.78418,33.4716,제주특별자치도 제주시 구좌읍 송당리 1379-12
902.0,산양리,126.23326000000002,33.29368,제주특별자치도 제주시 한경면 청수리 3259-8
903.0,산양리,126.23347,33.293820000000004,제주특별자치도 제주시 한경면 청수리 3331-5
904.0,수룡동,126.23871000000001,33.30833,제주특별자치도 제주시 한경면 낙천리 462-6
905.0,수룡동,126.23853000000001,33.30823,제주특별자치도 제주시 한경면 낙천리 452-10
906.0,청수리,126.24456,33.32114,제주특별자치도 제주시 한경면 청수리 1638-2
907.0,청수리,126.24446,33.32121,제주특별자치도 제주시 한경면 청수리 1639-2
908.0,저청중학교,126.25173000000001,33.32562,제주특별자치도 제주시 한경면 청수리 416-1
909.0,저청중학교,126.2521,33.32582,제주특별자치도 제주시 한경면 청수리 416-2
910.0,상명,126.26975,33.36007,제주특별자치도 제주시 한림읍 상명리 1599-3
911.0,상명리,126.27005,33.36023,제주특별자치도 제주시 한림읍 상명리 1598-2
912.0,상명리,126.27962,33.35695,제주특별자치도 제주시 한림읍 상명리 331-3
913.0,상명리,126.2792,33.35703,제주특별자치도 제주시 한림읍 상명리 294-2
914.0,조성동입구,126.2737,33.35773,제주특별자치도 제주시 한림읍 상명리 1026-2
915.0,상명리,126.27443000000001,33.357409999999994,제주특별자치도 제주시 한림읍 상명리 1025-1
916.0,월림리,126.26172,33.35492,제주특별자치도 제주시 한림읍 상명리 2138-2
917.0,월림리,126.26165,33.35477,제주특별자치도 제주시 한림읍 월림리 2108-2
918.0,예향원,126.25887,33.35304,제주특별자치도 제주시 한림읍 월림리 2361
919.0,예향원,126.25927,33.35304,제주특별자치도 제주시 한림읍 월림리 2361
920.0,월림삼거리,126.25606,33.349909999999994,제주특별자치도 제주시 한림읍 월림리 285-4
921.0,월림삼거리,126.2562,33.35002,제주특별자치도 제주시 한림읍 월림리 2350-3
922.0,월림,126.25608000000001,33.34792,제주특별자치도 제주시 한림읍 월림리 341-3
923.0,월림리,126.25583,33.34618,제주특별자치도 제주시 한림읍 월림리 464-4
924.0,저지리성전동,126.25698,33.3413,제주특별자치도 제주시 한경면 저지리 산 13-7
925.0,성전동,126.25725,33.34111,제주특별자치도 제주시 한경면 저지리 534-1
926.0,저지리,126.25655,33.33497,제주특별자치도 제주시 한경면 저지리 1798-4
927.0,저지오름,126.25638000000001,33.3335,제주특별자치도 제주시 한경면 저지리 1844-4
928.0,저지오름,126.25648000000001,33.33341,제주특별자치도 제주시 한경면 저지리 3258
929.0,저지남동,126.25515,33.3301,제주특별자치도 제주시 한경면 저지리 1711-8
930.0,저지리,126.25523000000001,33.330009999999994,제주특별자치도 제주시 한경면 저지리 1711-7
931.0,제주서부신협,126.25352,33.327420000000004,제주특별자치도 제주시 한경면 저지리 1505
932.0,명리동,126.26783999999999,33.31926,제주특별자치도 제주시 한경면 저지리 3022-7
933.0,명리동,126.26803000000001,33.31933,제주특별자치도 제주시 한경면 저지리 3258
934.0,명리동,126.26978000000001,33.31773,제주특별자치도 제주시 한경면 저지리 3007-2
935.0,명리동,126.26977,33.31758,제주특별자치도 제주시 한경면 저지리 3258
936.0,이시돌삼거리,126.31671000000001,33.34467,제주특별자치도 제주시 한림읍 금악리 411-1
937.0,금악리,126.29491999999999,33.35763,제주특별자치도 제주시 한림읍 금악리 2117
938.0,금악초등학교,126.29571000000001,33.35719,제주특별자치도 제주시 한림읍 금악리 1898-2
939.0,금악리,126.29786000000001,33.36053,제주특별자치도 제주시 한림읍 금악리 2031-18
940.0,금악리,126.29807,33.36098,제주특별자치도 제주시 한림읍 금악리 2031-36
941.0,금악,126.2928,33.361999999999995,제주특별자치도 제주시 한림읍 금악리 2204-10
942.0,금악리,126.29223,33.36255,제주특별자치도 제주시 한림읍 금악리 3453
943.0,금악리,126.28713,33.36658,제주특별자치도 제주시 한림읍 금악리 2850-8
944.0,금악리,126.2869,33.36667,제주특별자치도 제주시 한림읍 금악리 2847-1
945.0,고림동,126.28511,33.37457,제주특별자치도 제주시 한림읍 명월리 429-9
946.0,고림동,126.28476,33.37415,제주특별자치도 제주시 한림읍 명월리 417-12
947.0,문수동,126.2834,33.385490000000004,제주특별자치도 제주시 한림읍 동명리 175-5
948.0,문수동,126.28357,33.38559,제주특별자치도 제주시 한림읍 동명리 175-1
949.0,신명동,126.28063,33.3888,제주특별자치도 제주시 한림읍 동명리 278-1
950.0,신명동,126.28081,33.38875,제주특별자치도 제주시 한림읍 동명리 259-4
964.0,미듬아파트,126.26873,33.41875,제주특별자치도 제주시 한림읍 대림리 1853-4
965.0,미듬아파트,126.26883000000001,33.4187,제주특별자치도 제주시 한림읍 대림리 1771-5
966.0,한림오일시장,126.27277,33.42051,제주특별자치도 제주시 한림읍 대림리 1718-3
967.0,한림오일시장,126.27358999999998,33.4208,제주특별자치도 제주시 한림읍 대림리 1714
968.0,대림사거리,126.27776000000001,33.42216,제주특별자치도 제주시 한림읍 대림리 444-2
969.0,대림사거리,126.27881000000001,33.42218,제주특별자치도 제주시 한림읍 대림리 1413-4
970.0,대림리사무소,126.28062,33.42252,제주특별자치도 제주시 한림읍 대림리 766-6
971.0,대림리사무소,126.28147,33.42263,제주특별자치도 제주시 한림읍 대림리 763-7
972.0,대림입전동,126.28336000000002,33.42218,제주특별자치도 제주시 한림읍 대림리 752-2
973.0,대림입전동,126.28352,33.422,제주특별자치도 제주시 한림읍 대림리 752-7
974.0,귀덕3리,126.29202,33.4182,제주특별자치도 제주시 한림읍 귀덕리 2147-4
975.0,귀덕3리,126.2923,33.418,제주특별자치도 제주시 한림읍 귀덕리 2217-3
976.0,귀덕3리,126.29618,33.418929999999996,제주특별자치도 제주시 한림읍 귀덕리 2074-9
977.0,귀덕3리,126.2962,33.41901,제주특별자치도 제주시 한림읍 귀덕리 2074-1
978.0,도림사,126.30233999999999,33.418420000000005,제주특별자치도 제주시 한림읍 귀덕리 58-11
979.0,도림사,126.30245,33.41823,제주특별자치도 제주시 애월읍 봉성리 3946-4
980.0,봉성리서성동,126.31071999999999,33.41721,제주특별자치도 제주시 애월읍 봉성리 4097-5
981.0,봉성리서성동,126.31071999999999,33.41738,제주특별자치도 제주시 애월읍 봉성리 4106-1
982.0,봉성하나로마트,126.31245,33.4189,제주특별자치도 제주시 애월읍 봉성리 4123-3
983.0,봉성하나로마트,126.31257,33.41922,제주특별자치도 제주시 애월읍 봉성리 3820-3
984.0,구몰리동,126.31553999999998,33.42479,제주특별자치도 제주시 애월읍 봉성리 3408-8
985.0,구오일시장,126.32489,33.43531,제주특별자치도 제주시 애월읍 납읍리 2787
986.0,납읍리섯잣길,126.32758000000001,33.43705,제주특별자치도 제주시 애월읍 납읍리 2188-3
987.0,납읍리,126.32895,33.43891,제주특별자치도 제주시 애월읍 납읍리 1569-1
988.0,납읍리사무소,126.32943999999999,33.439440000000005,제주특별자치도 제주시 애월읍 납읍리 1754-3
989.0,원동입구,126.33591000000001,33.445009999999996,제주특별자치도 제주시 애월읍 납읍리 1891-7
990.0,상가리서동,126.34097,33.45013,제주특별자치도 제주시 애월읍 상가리 1749-5
991.0,상가리서동,126.34074,33.45047,제주특별자치도 제주시 애월읍 상가리 1765-5
992.0,상가리,126.34188999999999,33.45174,제주특별자치도 제주시 애월읍 상가리 1794-9
993.0,하가입구,126.3442,33.4523,제주특별자치도 제주시 애월읍 하가리 1591-5
994.0,상가리보건진료소,126.34428,33.452009999999994,제주특별자치도 제주시 애월읍 상가리 1805-2
995.0,상가리동동,126.34728,33.45208,제주특별자치도 제주시 애월읍 상가리 1156-4
996.0,하가리오당빌레,126.35085,33.453179999999996,제주특별자치도 제주시 애월읍 하가리 792-1
997.0,하가리오당빌레,126.35082,33.45333,제주특별자치도 제주시 애월읍 하가리 848-4
998.0,존손이굴,126.36228999999999,33.45217,제주특별자치도 제주시 애월읍 하가리 190-4
999.0,용흥리,126.36886000000001,33.452059999999996,제주특별자치도 제주시 애월읍 신엄리 1951-6
1000.0,용흥리,126.36958,33.45172,제주특별자치도 제주시 애월읍 신엄리 2042-6
1001.0,흥국사,126.3781,33.45244,제주특별자치도 제주시 애월읍 신엄리 118-1
1002.0,흥국사,126.37841999999999,33.45263,제주특별자치도 제주시 애월읍 장전리 1382-7
1003.0,장전알동네,126.38545,33.4523,제주특별자치도 제주시 애월읍 장전리 1174-5
1004.0,장전알동네,126.38561999999999,33.45175,제주특별자치도 제주시 애월읍 장전리 1123-3
1005.0,장전리사무소,126.38845,33.45088,제주특별자치도 제주시 애월읍 장전리 453-3
1006.0,알뱅듸왓,126.39052,33.450540000000004,제주특별자치도 제주시 애월읍 장전리 381-5
1007.0,알뱅듸왓,126.39065,33.45035,제주특별자치도 제주시 애월읍 장전리 435
1008.0,장전리동가름,126.39523,33.45264,제주특별자치도 제주시 애월읍 장전리 240-4
1009.0,장전리동가름,126.39532,33.45254,제주특별자치도 제주시 애월읍 장전리 190-11
1010.0,예원동,126.40335,33.4561,제주특별자치도 제주시 애월읍 상귀리 1100-1
1011.0,극락사,126.40695,33.45653,제주특별자치도 제주시 애월읍 상귀리 789-8
1012.0,극락사,126.40677,33.456340000000004,제주특별자치도 제주시 애월읍 상귀리 789-5
1013.0,세화환승정류장(세화리),126.8566,33.52325,제주특별자치도 제주시 구좌읍 세화리 1465-6
1014.0,세화리시장2동,126.85361,33.5236,제주특별자치도 제주시 구좌읍 세화리 1524-5
1015.0,세화리시장2동,126.85325,33.5235,제주특별자치도 제주시 구좌읍 세화리 1531-3
1016.0,하덕천,126.77111000000001,33.502629999999996,제주특별자치도 제주시 구좌읍 덕천리 283-1
1017.0,덕천리,126.77078,33.50244,제주특별자치도 제주시 구좌읍 덕천리 233
1018.0,선흘,126.70523,33.511559999999996,제주특별자치도 제주시 조천읍 선흘리 1207-2
1019.0,선흘1리,126.70512,33.51168,제주특별자치도 제주시 조천읍 선흘리 4199
1020.0,신선동,126.6987,33.51228,제주특별자치도 제주시 조천읍 선흘리 2836-2
1021.0,낙선동,126.69341999999999,33.51455,제주특별자치도 제주시 조천읍 선흘리 3383-2
1022.0,낙선동,126.69353000000001,33.51467,제주특별자치도 제주시 조천읍 선흘리 3386-1
1023.0,억수동,126.68706999999999,33.526559999999996,제주특별자치도 제주시 조천읍 북촌리 1926-4
1024.0,억수동,126.68676,33.526759999999996,제주특별자치도 제주시 조천읍 북촌리 1912-2
1025.0,유수암리,126.41093000000001,33.42781,제주특별자치도 제주시 애월읍 유수암리 3234
1026.0,교래사거리,126.67172,33.43335,제주특별자치도 제주시 조천읍 교래리 산 60-13
1027.0,교래사거리,126.67178,33.43325,제주특별자치도 제주시 조천읍 교래리 산 60-13
1028.0,고평동,126.6566,33.47445,제주특별자치도 제주시 조천읍 와흘리 2814
1029.0,고평동,126.65626999999999,33.4749,제주특별자치도 제주시 조천읍 와흘리 72-4
1030.0,먼나먼루,126.65023000000001,33.487759999999994,제주특별자치도 제주시 조천읍 와흘리 385-8
1031.0,먼나먼루,126.6501,33.48793,제주특별자치도 제주시 조천읍 와흘리 385-6
1032.0,대흘1리,126.65285,33.49817,제주특별자치도 제주시 조천읍 대흘리 2329-5
1033.0,대흘1리,126.6541,33.498459999999994,제주특별자치도 제주시 조천읍 대흘리 2296-8
1034.0,대흘1리,126.65392,33.49855,제주특별자치도 제주시 조천읍 대흘리 2297-1
1035.0,탐라도뚜리농장,126.64238,33.502359999999996,제주특별자치도 제주시 조천읍 와흘리 2814
1036.0,탐라도뚜리농장,126.64192,33.50213,제주특별자치도 제주시 조천읍 와흘리 1336-3
1037.0,와흘리,126.63628,33.503029999999995,제주특별자치도 제주시 조천읍 와흘리 1260-5
1038.0,와흘,126.63506000000001,33.50308,제주특별자치도 제주시 조천읍 와흘리 1456-2
1039.0,새가름마을,126.62881999999999,33.50482,제주특별자치도 제주시 조천읍 와흘리 2601-9
1040.0,새가름마을,126.62845,33.5047,제주특별자치도 제주시 조천읍 와흘리 2814
1041.0,동회천,126.61338,33.50465,제주특별자치도 제주시 회천동 2326-1
1042.0,남조로검문소,126.66118,33.46968,제주특별자치도 제주시 조천읍 대흘리 1235-11
1043.0,세미마을,126.66362,33.470009999999995,제주특별자치도 제주시 조천읍 대흘리 1197-33
1044.0,세미마을,126.66462,33.46985,제주특별자치도 제주시 조천읍 대흘리 1197-35
1045.0,대흘교차로,126.6764,33.46898,제주특별자치도 제주시 조천읍 대흘리 1209-2
1046.0,대흘교차로,126.67971999999999,33.46842,제주특별자치도 제주시 조천읍 와산리 산 27-1
1047.0,선흘2리입구,126.70153,33.458859999999994,제주특별자치도 제주시 조천읍 선흘리 1942-8
1048.0,선흘2리입구,126.70143,33.45841,제주특별자치도 제주시 조천읍 선흘리 1941-6
1049.0,거문오름입구,126.709,33.45304,제주특별자치도 제주시 조천읍 선흘리 1848-3
1050.0,거문오름입구,126.70935,33.452220000000004,제주특별자치도 제주시 조천읍 선흘리 1869-4
1051.0,대천환승정류장(제주방향),126.73489,33.43642,제주특별자치도 제주시 구좌읍 송당리 2601-4
1052.0,성연목장,126.7568,33.422340000000005,제주특별자치도 제주시 구좌읍 송당리 산 262-1
1053.0,성연목장,126.75697,33.42255,제주특별자치도 제주시 구좌읍 송당리 산 262-1
1054.0,제주민속식품입구,126.7515,33.4282,제주특별자치도 제주시 구좌읍 송당리 2744-6
1055.0,제주민속식품입구,126.75147,33.428509999999996,제주특별자치도 제주시 구좌읍 송당리 산 269-11
1056.0,대성목장,126.74753,33.43071,제주특별자치도 제주시 구좌읍 송당리 산 286-3
1057.0,대성목장,126.74768,33.43088,제주특별자치도 제주시 구좌읍 송당리 산 286-3
1058.0,대천환승정류장(표선방향),126.73714,33.43537,제주특별자치도 제주시 구좌읍 송당리 2635-6
1059.0,대천환승정류장(교래방향),126.73451000000001,33.435179999999995,제주특별자치도 제주시 구좌읍 송당리 2614-2
1060.0,대천환승정류장(세화방향),126.73704,33.43615,제주특별자치도 제주시 구좌읍 송당리 산 126-7
1061.0,탐라승마장,126.7178,33.43405,제주특별자치도 제주시 조천읍 교래리 산 10-4
1062.0,탐라승마장,126.71682,33.43362,제주특별자치도 제주시 조천읍 교래리 42-2
1063.0,산굼부리,126.68933,33.435320000000004,제주특별자치도 제주시 조천읍 교래리 165-2
1064.0,산굼부리,126.68883999999998,33.43537,제주특별자치도 제주시 조천읍 교래리 165-2
1065.0,교래리,126.67786000000001,33.436859999999996,제주특별자치도 제주시 조천읍 교래리 827
1066.0,교래리보건소,126.6762,33.43626,제주특별자치도 제주시 조천읍 교래리 481-2
1069.0,구엄리,126.37619,33.474540000000005,제주특별자치도 제주시 애월읍 구엄리 1080-7
1070.0,구엄리,126.37625,33.47432,제주특별자치도 제주시 애월읍 구엄리 1078-12
1071.0,중엄리,126.37338999999999,33.47355,제주특별자치도 제주시 애월읍 신엄리 757-6
1072.0,중엄리,126.37366999999999,33.473459999999996,제주특별자치도 제주시 애월읍 신엄리 756-8
1073.0,신엄리,126.36806999999999,33.47177,제주특별자치도 제주시 애월읍 신엄리 3208
1074.0,신엄리,126.36813000000001,33.4716,제주특별자치도 제주시 애월읍 신엄리 1305-9
1075.0,자운당,126.35694,33.467420000000004,제주특별자치도 제주시 애월읍 하가리 1633
1076.0,고내리애월119센터,126.34943,33.46629,제주특별자치도 제주시 애월읍 고내리 1365
1077.0,애월119센터,126.34871000000001,33.466229999999996,제주특별자치도 제주시 애월읍 고내리 207-4
1078.0,고내리,126.33805,33.46246,제주특별자치도 제주시 애월읍 고내리 663-3
1079.0,고내리,126.3389,33.46315,제주특별자치도 제주시 애월읍 고내리 1037-3
1080.0,애월고등학교,126.33447,33.46262,제주특별자치도 제주시 애월읍 고내리 1370
1081.0,애월고등학교,126.33455,33.46243,제주특별자치도 제주시 애월읍 애월리 4-3
1082.0,애월읍사무소,126.33033999999999,33.462579999999996,제주특별자치도 제주시 애월읍 애월리 343-5
1083.0,애월읍사무소,126.32902,33.46308,제주특별자치도 제주시 애월읍 애월리 353-2
1084.0,애월중학교,126.32522,33.46358,제주특별자치도 제주시 애월읍 애월리 458-1
1085.0,애월중학교,126.32416,33.46353,제주특별자치도 제주시 애월읍 애월리 548
1086.0,애월리,126.32068999999998,33.46439,제주특별자치도 제주시 애월읍 애월리 1715-19
1087.0,애월환승정류장(애월리),126.31983000000001,33.46444,제주특별자치도 제주시 애월읍 애월리 1584-1
1088.0,신설동,126.31636999999999,33.46431,제주특별자치도 제주시 애월읍 애월리 2115-5
1089.0,신설동,126.3157,33.46433,제주특별자치도 제주시 애월읍 애월리 2020-1
1090.0,한담동,126.31268999999999,33.46264,제주특별자치도 제주시 애월읍 애월리 2628
1091.0,한담동,126.31278,33.46243,제주특별자치도 제주시 애월읍 애월리 2154-2
1092.0,곽지모물,126.30892,33.45169,제주특별자치도 제주시 애월읍 곽지리 1538-1
1093.0,곽지해수욕장,126.30746,33.44843,제주특별자치도 제주시 애월읍 곽지리 1668-3
1094.0,곽지해수욕장,126.30757,33.4482,제주특별자치도 제주시 애월읍 곽지리 2495
1095.0,금빛신협,126.3058,33.44655,제주특별자치도 제주시 애월읍 곽지리 2046-2
1096.0,금빛신협,126.30467,33.44578,제주특별자치도 제주시 애월읍 곽지리 2060-3
1097.0,금성리,126.30238999999999,33.444959999999995,제주특별자치도 제주시 애월읍 금성리 444-3
1098.0,금성리,126.30143000000001,33.4445,제주특별자치도 제주시 애월읍 금성리 601-3
1099.0,하동복지회관,126.29678999999999,33.44421,제주특별자치도 제주시 한림읍 귀덕리 4174
1100.0,하동복지회관,126.29677,33.44437,제주특별자치도 제주시 한림읍 귀덕리 903-4
1101.0,귀덕초등학교,126.29413999999998,33.44372,제주특별자치도 제주시 한림읍 귀덕리 1179-6
1102.0,귀덕1리,126.29275,33.443509999999996,제주특별자치도 제주시 한림읍 귀덕리 1026-4
1103.0,사동복지회관,126.29005,33.442209999999996,제주특별자치도 제주시 한림읍 귀덕리 4174
1104.0,사동복지회관,126.28872,33.44187,제주특별자치도 제주시 한림읍 귀덕리 3028-3
1105.0,초록마을,126.28666000000001,33.441179999999996,제주특별자치도 제주시 한림읍 귀덕리 2962-8
1106.0,초록마을,126.2856,33.440979999999996,제주특별자치도 제주시 한림읍 귀덕리 4174
1107.0,귀덕새마을금고,126.28327,33.43994,제주특별자치도 제주시 한림읍 귀덕리 3253-6
1108.0,귀덕새마을금고,126.28236000000001,33.43974,제주특별자치도 제주시 한림읍 귀덕리 3329-5
1109.0,귀덕2리,126.28041,33.43813,제주특별자치도 제주시 한림읍 귀덕리 3347-3
1110.0,귀덕2리,126.27913999999998,33.43732,제주특별자치도 제주시 한림읍 귀덕리 3992-1
1111.0,라신동,126.27783000000001,33.43527,제주특별자치도 제주시 한림읍 귀덕리 4174
1112.0,라신동,126.27738000000001,33.434059999999995,제주특별자치도 제주시 한림읍 귀덕리 3651-3
1113.0,용운동,126.27596000000001,33.43227,제주특별자치도 제주시 한림읍 수원리 262-5
1114.0,용운동,126.27592,33.43195,제주특별자치도 제주시 한림읍 대림리 1035-2
1115.0,대림입구,126.27238999999999,33.4286,제주특별자치도 제주시 한림읍 대림리 1095-23
1116.0,대림입구,126.27198,33.42846,제주특별자치도 제주시 한림읍 수원리 289
1117.0,수원리,126.26993999999999,33.426140000000004,제주특별자치도 제주시 한림읍 대림리 1591
1118.0,수원리,126.26913,33.42566,제주특별자치도 제주시 한림읍 대림리 2021-8
1119.0,한림2리,126.26915,33.41402,제주특별자치도 제주시 한림읍 한림리 1009-3
1120.0,한림고등학교,126.25426999999999,33.40488,제주특별자치도 제주시 한림읍 옹포리 983
1121.0,옹포리,126.2522,33.40332,제주특별자치도 제주시 한림읍 옹포리 560-3
1122.0,옹포리,126.25168000000001,33.40303,제주특별자치도 제주시 한림읍 옹포리 575
1123.0,옹포사거리,126.25598000000001,33.40558,제주특별자치도 제주시 한림읍 옹포리 983
1124.0,옹포사거리,126.25612,33.40585,제주특별자치도 제주시 한림읍 옹포리 983
1125.0,한림여자중학교,126.25965,33.41033,제주특별자치도 제주시 한림읍 한림리 1490-4
1126.0,한림여자중학교,126.25976999999999,33.4109,제주특별자치도 제주시 한림읍 한림리 1582
1127.0,한국통신,126.26118000000001,33.41275,제주특별자치도 제주시 한림읍 한림리 1386-13
1128.0,한국통신,126.26138,33.41302,제주특별자치도 제주시 한림읍 한림리 1582
1129.0,한림환승정류장(한림리),126.26336,33.41437,제주특별자치도 제주시 한림읍 한림리 1360-2
1130.0,한림환승정류장(한림리),126.26427,33.41453,제주특별자치도 제주시 한림읍 한림리 1582
1131.0,한수리,126.2646,33.42224,제주특별자치도 제주시 한림읍 한수리 840-10
1132.0,한수리,126.26409,33.42187,제주특별자치도 제주시 한림읍 한수리 887-9
1133.0,한림천주교회,126.26491000000001,33.41711,제주특별자치도 제주시 한림읍 한림리 1584
1134.0,한림주유소,126.26483,33.416709999999995,제주특별자치도 제주시 한림읍 한림리 1314-35
1135.0,협재리,126.24528000000001,33.39788,제주특별자치도 제주시 한림읍 협재리 1590-1
1136.0,협재리,126.24465,33.397529999999996,제주특별자치도 제주시 한림읍 협재리 2872
1137.0,협재해수욕장,126.24098000000001,33.39421,제주특별자치도 제주시 한림읍 협재리 1750-9
1138.0,협재해수욕장,126.24082,33.39423,제주특별자치도 제주시 한림읍 협재리 2447-4
1139.0,한림공원,126.23908,33.39182,제주특별자치도 제주시 한림읍 협재리 2514-15
1140.0,한림공원,126.23886,33.39178,제주특별자치도 제주시 한림읍 협재리 2497-3
1141.0,금능리,126.23226000000001,33.3874,제주특별자치도 제주시 한림읍 금능리 2072-2
1142.0,금능리,126.23234,33.38722,제주특별자치도 제주시 한림읍 금능리 2072-6
1143.0,금능석물원,126.22628,33.38603,제주특별자치도 제주시 한림읍 금능리 1282-3
1144.0,월령리,126.21781999999999,33.37615,제주특별자치도 제주시 한림읍 월령리 219-3
1145.0,월령리,126.2174,33.37595,제주특별자치도 제주시 한림읍 월령리 1220
1146.0,판포리상동,126.20451000000001,33.36765,제주특별자치도 제주시 한경면 판포리 1634-6
1147.0,판포리,126.20025,33.3648,제주특별자치도 제주시 한경면 판포리 2864-2
1148.0,판포리,126.19927,33.36457,제주특별자치도 제주시 한경면 판포리 2869-4
1149.0,금등리마을,126.19296000000001,33.36175,제주특별자치도 제주시 한경면 금등리 658-7
1150.0,금등리마을,126.1924,33.361779999999996,제주특별자치도 제주시 한경면 금등리 729-5
1151.0,구한경의원앞,126.18268,33.34407,제주특별자치도 제주시 한경면 신창리 680-2
1152.0,신창리한경수협,126.18279,33.347609999999996,제주특별자치도 제주시 한경면 신창리 1481
1153.0,신창환승정류장(한경면사무소),126.18308,33.34993,제주특별자치도 제주시 한경면 신창리 261-8
1154.0,두모리사무소,126.18528,33.35351,제주특별자치도 제주시 한경면 두모리 3023-8
1155.0,두모리사무소,126.18533000000001,33.353970000000004,제주특별자치도 제주시 한경면 두모리 2382-1
1156.0,신흥동,126.18238000000001,33.34063,제주특별자치도 제주시 한경면 용수리 4719-1
1157.0,용수리,126.17853999999998,33.32101,제주특별자치도 제주시 한경면 용수리 3048-4
1158.0,고산1리(구출장소),126.17855,33.30657,제주특별자치도 제주시 한경면 고산리 2629-2
1159.0,고산1리(구출장소),126.17898000000001,33.306059999999995,제주특별자치도 제주시 한경면 고산리 3993
1160.0,고산우체국앞,126.1796,33.3038,제주특별자치도 제주시 한경면 고산리 2208-5
1161.0,고산,126.17942,33.30307,제주특별자치도 제주시 한경면 고산리 2203-2
1162.0,고산환승정류장(고산1리고산성당앞),126.18043,33.3009,제주특별자치도 제주시 한경면 고산리 2865-5
1163.0,고산1리육거리,126.17971999999999,33.30087,제주특별자치도 제주시 한경면 고산리 3993
1164.0,화전마을,126.36003000000001,33.35201,제주특별자치도 제주시 애월읍 봉성리 산 35-9
1165.0,화전마을,126.35902,33.35143,제주특별자치도 제주시 한림읍 금악리 산 31-15
1166.0,엘리시안CC,126.37142,33.38017,제주특별자치도 제주시 애월읍 어음리 산 187
1167.0,국학원,126.37368000000001,33.3889,제주특별자치도 제주시 애월읍 어음리 산 3
1168.0,렛츠런파크,126.39263000000001,33.40997,제주특별자치도 제주시 애월읍 소길리 산 186-1
1169.0,렛츠런파크,126.39343000000001,33.41042,제주특별자치도 제주시 애월읍 소길리 산 186-1
1170.0,고성2리,126.42416000000001,33.43616,제주특별자치도 제주시 애월읍 고성리 920-3
1171.0,제주공룡원,126.43186000000001,33.443290000000005,제주특별자치도 제주시 애월읍 광령리 2675-2
1172.0,산이굴,126.43163,33.44396,제주특별자치도 제주시 애월읍 광령리 2663-1
1173.0,고성2리,126.42403,33.43694,제주특별자치도 제주시 애월읍 고성리 914-6
1174.0,국학원,126.37263,33.38753,제주특별자치도 제주시 애월읍 어음리 산 72-4
1175.0,어음2리입구,126.37048,33.38025,제주특별자치도 제주시 애월읍 어음리 산 68-3
1176.0,하도리창흥동,126.88738000000001,33.50877,제주특별자치도 제주시 구좌읍 하도리 산 10-1
1177.0,하도리창흥동,126.88703000000001,33.508559999999996,제주특별자치도 제주시 구좌읍 하도리 산 10-5
1178.0,하도리동동,126.88448000000001,33.51605,제주특별자치도 제주시 구좌읍 하도리 1299-5
1179.0,하도리동동,126.88421000000001,33.51593,제주특별자치도 제주시 구좌읍 하도리 1209-2
1180.0,하도리,126.88271999999999,33.51793,제주특별자치도 제주시 구좌읍 하도리 1314-2
1181.0,하도리,126.88259,33.51777,제주특별자치도 제주시 구좌읍 하도리 1313-3
1182.0,하도초등학교,126.87902,33.51812,제주특별자치도 제주시 구좌읍 하도리 2251-6
1183.0,하도초등학교,126.87903999999999,33.5179,제주특별자치도 제주시 구좌읍 하도리 2251-5
1184.0,하도리면수동,126.86867,33.52065,제주특별자치도 제주시 구좌읍 하도리 3309-5
1185.0,하도리면수동,126.8681,33.52102,제주특별자치도 제주시 구좌읍 하도리 3309-6
1186.0,해녀박물관입구,126.86385,33.52114,제주특별자치도 제주시 구좌읍 상도리 471-33
1187.0,해녀박물관입구,126.86376000000001,33.521029999999996,제주특별자치도 제주시 구좌읍 상도리 471-33
1188.0,세화리구좌농협,126.85986000000001,33.52095,제주특별자치도 제주시 구좌읍 세화리 1366-2
1189.0,세화리구좌농협,126.85958000000001,33.52107,제주특별자치도 제주시 구좌읍 세화리 1366-4
1190.0,구좌보건소,126.85968999999999,33.519859999999994,제주특별자치도 제주시 구좌읍 세화리 1332
1191.0,세화고등학교,126.863,33.5168,제주특별자치도 제주시 구좌읍 상도리 1401
1192.0,상도리세화고등학교,126.86353000000001,33.516529999999996,제주특별자치도 제주시 구좌읍 상도리 524-1
1193.0,상도마을회관,126.86532,33.51487,제주특별자치도 제주시 구좌읍 상도리 589
1194.0,상도마을회관,126.86613,33.51445,제주특별자치도 제주시 구좌읍 상도리 1401
1195.0,종달리,126.89621000000001,33.49512,제주특별자치도 제주시 구좌읍 종달리 1714-4
1196.0,종달초등학교,126.89648000000001,33.4929,제주특별자치도 제주시 구좌읍 종달리 4982
1197.0,종달초등학교,126.89627,33.49238,제주특별자치도 제주시 구좌읍 종달리 1903-1
1198.0,평대리동동,126.84971000000002,33.524390000000004,제주특별자치도 제주시 구좌읍 평대리 419-2
1199.0,평대리동동,126.8495,33.52432,제주특별자치도 제주시 구좌읍 평대리 355-10
1200.0,평대리사무소,126.84331,33.52787,제주특별자치도 제주시 구좌읍 평대리 749-1
1201.0,평대리사무소,126.84228,33.52834,제주특별자치도 제주시 구좌읍 평대리 3344
1202.0,평대초등학교,126.83878999999999,33.52884,제주특별자치도 제주시 구좌읍 평대리 1727-1
1203.0,평대초등학교,126.83922,33.52957,제주특별자치도 제주시 구좌읍 평대리 647-3
1204.0,평대초등학교,126.83878,33.529759999999996,제주특별자치도 제주시 구좌읍 평대리 1720-6
1205.0,평대리서동,126.83778000000001,33.530770000000004,제주특별자치도 제주시 구좌읍 평대리 1841-1
1206.0,평대리서동,126.83758,33.53078,제주특별자치도 제주시 구좌읍 평대리 3344
1207.0,계룡동,126.83389,33.53362,제주특별자치도 제주시 구좌읍 평대리 2033-16
1208.0,계룡동,126.83345,33.5344,제주특별자치도 제주시 구좌읍 한동리 37-2
1209.0,한동리,126.82958,33.53717,제주특별자치도 제주시 구좌읍 한동리 1195-3
1210.0,한동리,126.82945,33.5371,제주특별자치도 제주시 구좌읍 한동리 1186-2
1211.0,한동리서동,126.82722,33.53873,제주특별자치도 제주시 구좌읍 한동리 1161-3
1212.0,한동리서동,126.82693,33.53877,제주특별자치도 제주시 구좌읍 한동리 4848
1213.0,구좌중앙초등학교,126.79858,33.55117,제주특별자치도 제주시 구좌읍 월정리 1894
1214.0,구좌중앙초등학교,126.79898,33.55118,제주특별자치도 제주시 구좌읍 월정리 130-11
1215.0,행원리,126.80771000000001,33.55337,제주특별자치도 제주시 구좌읍 행원리 727-1
1216.0,행원리,126.80828000000001,33.552929999999996,제주특별자치도 제주시 구좌읍 행원리 811-7
1217.0,행원농공단지,126.8141,33.54936,제주특별자치도 제주시 구좌읍 행원리 438-3
1218.0,행원농공단지,126.81438,33.5493,제주특별자치도 제주시 구좌읍 행원리 3554
1219.0,월정리,126.79105,33.5519,제주특별자치도 제주시 구좌읍 월정리 306-3
1220.0,월정리,126.79115,33.55175,제주특별자치도 제주시 구좌읍 월정리 214-5
1221.0,만장굴입구,126.7789,33.54965,제주특별자치도 제주시 구좌읍 월정리 1821-4
1222.0,만장굴입구,126.7773,33.54925,제주특별자치도 제주시 구좌읍 월정리 1840-3
1223.0,지경곰,126.76855,33.55198,제주특별자치도 제주시 구좌읍 김녕리 2117
1224.0,지경곰,126.76818,33.55229,제주특별자치도 제주시 구좌읍 김녕리 2117
1225.0,김녕해수욕장,126.76029,33.555820000000004,제주특별자치도 제주시 구좌읍 김녕리 497-2
1226.0,김녕해수욕장,126.75931000000001,33.55617,제주특별자치도 제주시 구좌읍 김녕리 501-5
1227.0,동성동,126.75453,33.55563,제주특별자치도 제주시 구좌읍 김녕리 2121
1228.0,김녕환승정류장(김녕초등학교),126.75125,33.55503,제주특별자치도 제주시 구좌읍 김녕리 2121
1229.0,김녕환승정류장(김녕초등학교),126.75126999999999,33.5549,제주특별자치도 제주시 구좌읍 김녕리 2121
1230.0,김녕리,126.74795,33.55422,제주특별자치도 제주시 구좌읍 김녕리 6194
1231.0,김녕리,126.74711,33.55438,제주특별자치도 제주시 구좌읍 김녕리 6194
1232.0,남흘동,126.74328,33.55535,제주특별자치도 제주시 구좌읍 김녕리 6194
1233.0,남흘동,126.74293,33.55543,제주특별자치도 제주시 구좌읍 김녕리 6194
1234.0,동복리,126.71265,33.553020000000004,제주특별자치도 제주시 구좌읍 동복리 1759
1235.0,동복리,126.71257,33.55292,제주특별자치도 제주시 구좌읍 동복리 1484-3
1236.0,동복리휴게소,126.70765,33.553329999999995,제주특별자치도 제주시 구좌읍 동복리 1685-4
1237.0,북촌다려마을,126.70148,33.55145,제주특별자치도 제주시 조천읍 북촌리 361-2
1238.0,북촌다려마을,126.70022,33.55107,제주특별자치도 제주시 조천읍 북촌리 388-5
1239.0,북촌리,126.69503,33.548120000000004,제주특별자치도 제주시 조천읍 북촌리 632-1
1240.0,북촌리,126.69523000000001,33.54797,제주특별자치도 제주시 조천읍 북촌리 634-3
1241.0,북촌리해동,126.68695,33.54475,제주특별자치도 제주시 조천읍 북촌리 1636-5
1242.0,북촌리해동,126.68547,33.54418,제주특별자치도 제주시 조천읍 북촌리 2688
1243.0,911의원,126.6784,33.540620000000004,제주특별자치도 제주시 조천읍 함덕리 261-24
1244.0,911의원,126.67808000000001,33.540690000000005,제주특별자치도 제주시 조천읍 함덕리 261-10
1245.0,1100고지휴게소,126.46293999999999,33.357820000000004,제주특별자치도 서귀포시 색달동 산 1-2
1246.0,한라산둘레길(천아숲길입구),126.47705,33.4095,제주특별자치도 제주시 해안동 산 219-10
1247.0,충혼묘지,126.48995,33.4182,제주특별자치도 제주시 노형동 산 17-3
1248.0,한라산둘레길(천아숲길입구),126.47718,33.40935,제주특별자치도 제주시 해안동 산 219-3
1249.0,어리목,126.48531000000001,33.39035,제주특별자치도 제주시 해안동 산 220-1
1250.0,어리목입구,126.48533,33.39022,제주특별자치도 제주시 해안동 산 220-3
1251.0,충혼묘지,126.48982,33.41827,제주특별자치도 제주시 노형동 산 17-2
1252.0,봉개체육공원,126.61158,33.48428,제주특별자치도 제주시 회천동 1783-4
1253.0,성판악,126.62048999999999,33.38512,제주특별자치도 제주시 조천읍 교래리 산 137-23
1254.0,봉개교,126.58166000000001,33.496759999999995,제주특별자치도 제주시 봉개동 2735
1255.0,전원마을,126.63871,33.47485,제주특별자치도 제주시 조천읍 와흘리 2836
1256.0,초록마을,126.64496000000001,33.4712,제주특별자치도 제주시 조천읍 와흘리 2871-1
1257.0,남조로검문소,126.65782,33.46986,제주특별자치도 제주시 조천읍 와흘리 125-3
1258.0,이기풍선교기념관,126.6627,33.456559999999996,제주특별자치도 제주시 조천읍 대흘리 산 46-2
1259.0,제주돌문화공원,126.66402,33.44747,제주특별자치도 제주시 조천읍 교래리 산 99-1
1260.0,교래사거리,126.67206000000002,33.43408,제주특별자치도 제주시 조천읍 교래리 산 60-19
1261.0,교래리,126.67568,33.42463,제주특별자치도 제주시 조천읍 교래리 산 36-2
1262.0,제주목장,126.67799,33.41741,제주특별자치도 제주시 조천읍 교래리 산 25-3
1263.0,제주목장,126.67793999999999,33.41726,제주특별자치도 제주시 조천읍 교래리 산 25-3
1264.0,교래리,126.67442,33.42588,제주특별자치도 제주시 조천읍 교래리 837
1265.0,교래사거리,126.67161000000002,33.4344,제주특별자치도 제주시 조천읍 교래리 산 60-65
1266.0,제주돌문화공원,126.66429,33.44615,제주특별자치도 제주시 조천읍 교래리 산 99-10
1267.0,이기풍선교기념관,126.66228000000001,33.45588,제주특별자치도 제주시 조천읍 대흘리 산 46-2
1268.0,초록마을,126.64615,33.47074,제주특별자치도 제주시 조천읍 와흘리 2948-2
1269.0,전원마을,126.63868000000001,33.47456,제주특별자치도 제주시 조천읍 와흘리 2819-1
1270.0,봉개체육공원,126.61268999999999,33.48425,제주특별자치도 제주시 회천동 1781-6
1271.0,봉개교,126.58155,33.49654,제주특별자치도 제주시 봉개동 2698
1272.0,제주컨트리클럽,126.58545,33.4327,제주특별자치도 제주시 영평동 2263-1
1273.0,견월교,126.60813999999999,33.424009999999996,제주특별자치도 제주시 봉개동-457
1274.0,교래입구,126.61678,33.41938,제주특별자치도 제주시 봉개동 산 78-19
1275.0,교래입구,126.61662,33.41923,제주특별자치도 제주시 봉개동-457
1276.0,견월교,126.60821999999999,33.42378,제주특별자치도 제주시 봉개동 산 78-6
1277.0,제주컨트리클럽,126.58505,33.432959999999994,제주특별자치도 제주시 영평동 2263-2
1281.0,와흘상동,126.63476999999999,33.49276,제주특별자치도 제주시 조천읍 와흘리 2814
1282.0,장전리사무소,126.38821000000002,33.450990000000004,제주특별자치도 제주시 애월읍 장전리 362-5
1283.0,납읍리섯잣길,126.32738,33.43673,제주특별자치도 제주시 애월읍 납읍리 2422-3
1284.0,더럭초등학교,126.34616000000001,33.45415,제주특별자치도 제주시 애월읍 하가리 1552-3
1285.0,하가삼거리,126.3483,33.455870000000004,제주특별자치도 제주시 애월읍 하가리 1369-5
1286.0,하가리연못,126.34839,33.4558,제주특별자치도 제주시 애월읍 하가리 1369-2
1287.0,원동입구,126.33588,33.444759999999995,제주특별자치도 제주시 애월읍 납읍리 1889-1
1288.0,대흘초등학교,126.6585,33.49897,제주특별자치도 제주시 조천읍 대흘리 2787
1289.0,와산삼거리,126.68226000000001,33.49129,제주특별자치도 제주시 조천읍 와산리 980-2
1290.0,제일농장,126.66837,33.49282,제주특별자치도 제주시 조천읍 대흘리 2787
1292.0,상가리,126.3415,33.45178,제주특별자치도 제주시 애월읍 상가리 1812-2
1293.0,봉성하나로마트,126.31265,33.41888,제주특별자치도 제주시 애월읍 봉성리 4124-5
1294.0,하가리주승골,126.35077,33.45774,제주특별자치도 제주시 애월읍 하가리 941-2
1295.0,하가리노인회관,126.35072,33.45782,제주특별자치도 제주시 애월읍 하가리 947-8
1296.0,더럭초등학교,126.34607,33.45424000000001,제주특별자치도 제주시 애월읍 하가리 1575-1
1298.0,존손이굴,126.36197,33.45243,제주특별자치도 제주시 애월읍 하가리 168-3
1299.0,와흘리,126.63561000000001,33.503409999999995,제주특별자치도 제주시 조천읍 와흘리 1459-2
1301.0,이시돌하단지,126.32243000000001,33.34496,제주특별자치도 제주시 한림읍 금악리 111-1
1302.0,이시돌삼거리,126.31695,33.3447,제주특별자치도 제주시 한림읍 금악리 411
1303.0,동수동,126.62241000000002,33.5175,제주특별자치도 제주시 조천읍 신촌리 1402-4
1304.0,동수동,126.6225,33.51762,제주특별자치도 제주시 조천읍 신촌리 1402-6
1307.0,이시돌단지,126.33463,33.35883,제주특별자치도 제주시 한림읍 금악리 198-76
1308.0,이시돌단지,126.33663,33.36031,제주특별자치도 제주시 한림읍 금악리 198-60
1309.0,이시돌상단지,126.33733000000001,33.35975,제주특별자치도 제주시 한림읍 금악리 198-60
1311.0,이시돌하단지,126.32256000000001,33.34499,제주특별자치도 제주시 한림읍 금악리 119-2
1313.0,상가리동동,126.3466,33.45211,제주특별자치도 제주시 애월읍 하가리 1585-1
1316.0,동회천,126.61345,33.50455,제주특별자치도 제주시 회천동 2326-4
1317.0,고산1리육거리,126.17948,33.300959999999996,제주특별자치도 제주시 한경면 고산리 2822-13
1318.0,산양리,126.23348,33.29351,제주특별자치도 제주시 한경면 청수리 3329-1
1320.0,관동산,126.63569,33.50663,제주특별자치도 제주시 조천읍 와흘리 1497-1
1321.0,관동산,126.63565,33.50643,제주특별자치도 제주시 조천읍 와흘리 2814
1324.0,선린지,126.71556000000001,33.49331,제주특별자치도 제주시 조천읍 선흘리 4199
1325.0,선린지,126.71565,33.49305,제주특별자치도 제주시 조천읍 선흘리 산 59-5
1326.0,알밤오름,126.71281,33.49695,제주특별자치도 제주시 조천읍 선흘리 334-2
1327.0,알밤오름,126.7127,33.49678,제주특별자치도 제주시 조천읍 선흘리 668
1328.0,웃가름,126.70701000000001,33.50927,제주특별자치도 제주시 조천읍 선흘리 1277-2
1329.0,웃가름,126.70706000000001,33.508990000000004,제주특별자치도 제주시 조천읍 선흘리 1275-3
1330.0,유수암(거문덕이),126.4002,33.43105,제주특별자치도 제주시 애월읍 유수암리 1603-1
1331.0,유수암(거문덕이),126.40006000000001,33.43095,제주특별자치도 제주시 애월읍 유수암리 3236
1334.0,유수암리,126.40201,33.44128,제주특별자치도 제주시 애월읍 유수암리 1900-1
1337.0,돗바령,126.68968999999998,33.5123,제주특별자치도 제주시 조천읍 선흘리 3343-2
1338.0,돗바령,126.68968999999998,33.51242,제주특별자치도 제주시 조천읍 선흘리 3343-4
1341.0,조천도서관,126.6667,33.53719,제주특별자치도 제주시 조천읍 함덕리 917-1
1343.0,하가삼거리,126.3484,33.4561,제주특별자치도 제주시 애월읍 하가리 1376-2
1348.0,광령2리사무소,126.42912,33.44932,제주특별자치도 제주시 애월읍 광령리 3068-4
1349.0,애월신협,126.321,33.46416,제주특별자치도 제주시 애월읍 애월리 1639-2
1353.0,한라도서관,126.51472,33.47615,제주특별자치도 제주시 오라이동 899-3
1355.0,제주국제공항(신제주방면),126.49275,33.5061,제주특별자치도 제주시 용담이동 1984-5
1356.0,제주절물자연휴양림,126.63018999999998,33.440259999999995,제주특별자치도 제주시 봉개동 산 78-1
1357.0,한라생태숲,126.59716,33.429559999999995,제주특별자치도 제주시 용강동 산 14-2
1358.0,한라생태숲,126.59648999999999,33.429809999999996,제주특별자치도 제주시 용강동 산 14-3
1359.0,제주도립미술관입구,126.4871,33.45454,제주특별자치도 제주시 노형동 286-5
1360.0,제주도립미술관입구,126.48722,33.45465,제주특별자치도 제주시 연동 2477
1361.0,가원,126.56303,33.49861,제주특별자치도 제주시 화북이동 3087-5
1362.0,도깨비공원,126.69301000000002,33.465070000000004,제주특별자치도 제주시 조천읍 선흘리 4059-3
1363.0,도깨비공원,126.69268999999998,33.46553,제주특별자치도 제주시 조천읍 선흘리 4052-3
1364.0,제주삼다수,126.67663999999999,33.4214,제주특별자치도 제주시 조천읍 교래리 산 34-13
1365.0,제주삼다수,126.67673,33.42161,제주특별자치도 제주시 조천읍 교래리 184-1
1366.0,사려니숲길,126.62643999999999,33.42304,제주특별자치도 제주시 봉개동 산 78-1
1367.0,사려니숲길,126.6258,33.42308,제주특별자치도 제주시 봉개동 산 78-1
1368.0,저지리알못,126.26332,33.33595,제주특별자치도 제주시 한경면 저지리 3258
1369.0,저지리알못,126.26369,33.33589,제주특별자치도 제주시 한경면 저지리 3258
1370.0,방림원,126.26733999999999,33.336890000000004,제주특별자치도 제주시 한경면 저지리 2120-200
1371.0,방림원,126.26732,33.33703,제주특별자치도 제주시 한경면 저지리 2120-33
1372.0,저지리신흥동,126.26396000000001,33.33855,제주특별자치도 제주시 한경면 저지리 2114-23
1373.0,신흥동,126.26416,33.33863,제주특별자치도 제주시 한경면 저지리 2114-23
1374.0,용수리마을회관,126.16883999999999,33.32529,제주특별자치도 제주시 한경면 용수리 3445-7
1375.0,주구동산,126.17026000000001,33.32282,제주특별자치도 제주시 한경면 용수리 4719-1
1377.0,별빛누리공원/난타공연장,126.54847,33.44531,제주특별자치도 제주시 오등동 10-34
1378.0,탐라교육원,126.53277,33.42587,제주특별자치도 제주시 오라이동 1-1
1379.0,관음사등산로입구,126.54977,33.42245,제주특별자치도 제주시 오등동 산 180-2
1380.0,관음사등산로입구,126.54963000000001,33.422340000000005,제주특별자치도 제주시 오등동 산 180-2
1381.0,삼담우체국,126.51279,33.50196,제주특별자치도 제주시 용담일동 2830
1382.0,미래컨벤션센터,126.51475,33.506640000000004,제주특별자치도 제주시 용담일동 2583
1383.0,삼도119센터,126.51778,33.51449,제주특별자치도 제주시 용담일동 2578
1384.0,이화아파트,126.53991,33.51814,제주특별자치도 제주시 건입동 711
1385.0,사라봉경로당입구,126.53853000000001,33.51615,제주특별자치도 제주시 건입동 711
1386.0,제주해변공연장,126.52252,33.51746,제주특별자치도 제주시 삼도이동 1264
1387.0,사라봉경로당입구,126.53831000000001,33.51559,제주특별자치도 제주시 건입동 1047-1
1388.0,이화아파트,126.53985,33.51828,제주특별자치도 제주시 건입동 711
1389.0,제주해변공연장,126.52247,33.5173,제주특별자치도 제주시 삼도이동 1192-2
1390.0,삼도119센터,126.51789,33.51457,제주특별자치도 제주시 삼도이동 1227-1
1391.0,미래컨벤션센터,126.51482,33.506609999999995,제주특별자치도 제주시 용담일동 2583
1392.0,화북휴먼시아,126.57382,33.51717,제주특별자치도 제주시 화북일동 1027
1393.0,화북휴먼시아,126.57468,33.51737,제주특별자치도 제주시 화북일동 29-9
1394.0,축산진흥원입구,126.48755,33.446909999999995,제주특별자치도 제주시 노형동 293-17
1395.0,축산진흥원입구,126.48743999999999,33.44686,제주특별자치도 제주시 노형동 293-17
1396.0,화북공업지역입구,126.56453,33.51173,제주특별자치도 제주시 화북이동 3713-7
1397.0,구산마을,126.53801000000001,33.483290000000004,제주특별자치도 제주시 아라일동 2612-11
1398.0,구산마을,126.53809,33.48314,제주특별자치도 제주시 아라일동 2408-9
1399.0,황세왓동산,126.56709,33.49296,제주특별자치도 제주시 영평동 1288-2
1400.0,황세왓동산,126.56713,33.49313,제주특별자치도 제주시 영평동 1288-3
1401.0,고산농산물유통센터,126.19183999999998,33.29834,제주특별자치도 제주시 한경면 고산리 1671-11
1402.0,고산농산물유통센터,126.19176999999999,33.29845,제주특별자치도 제주시 한경면 고산리 1730-1
1405.0,월광동굴동산,126.25717,33.29499000000001,제주특별자치도 제주시 한경면 청수리 922-1
1406.0,월광동굴동산,126.25738999999999,33.295120000000004,제주특별자치도 제주시 한경면 청수리 915-1
1407.0,웃드르빛센터,126.25875,33.302440000000004,제주특별자치도 제주시 한경면 청수리 147-6
1408.0,웃드르빛센터,126.25858999999998,33.302409999999995,제주특별자치도 제주시 한경면 청수리 127
1409.0,산양리감귤선과장,126.23761,33.30303,제주특별자치도 제주시 한경면 낙천리 532
1410.0,산양리감귤선과장,126.23776000000001,33.30301,제주특별자치도 제주시 한경면 낙천리 531-2
1413.0,일성콘도미니엄,126.2215,33.3851,제주특별자치도 제주시 한림읍 금능리 2316
1414.0,일성콘도미니엄,126.22169,33.38499,제주특별자치도 제주시 한림읍 금능리 1869-1
1415.0,수원주유소,126.26651000000001,33.42371,제주특별자치도 제주시 한림읍 수원리 1027-7
1416.0,수원주유소,126.26675,33.42373,제주특별자치도 제주시 한림읍 수원리 826-20
1417.0,봉성리사무소,126.31295,33.42219,제주특별자치도 제주시 애월읍 봉성리 3808-14
1418.0,봉성리사무소,126.3127,33.42219,제주특별자치도 제주시 애월읍 봉성리 3808-6
1419.0,어음1리입구,126.32665,33.41838,제주특별자치도 제주시 애월읍 봉성리 1747-2
1420.0,어음1리입구,126.32661999999999,33.418420000000005,제주특별자치도 제주시 애월읍 봉성리 1747-1
1421.0,삼남내,126.77633,33.47071,제주특별자치도 제주시 구좌읍 송당리 1571-21
1422.0,삼남내,126.77611,33.470620000000004,제주특별자치도 제주시 구좌읍 송당리 2791
1423.0,송당물혹,126.78652,33.47088,제주특별자치도 제주시 구좌읍 송당리 1389-27
1424.0,송당물혹,126.78593000000001,33.47098,제주특별자치도 제주시 구좌읍 송당리 1467-5
1425.0,알송당,126.78735,33.483779999999996,제주특별자치도 제주시 구좌읍 송당리 2774
1426.0,알송당,126.78724,33.48375,제주특별자치도 제주시 구좌읍 송당리 521-6
1427.0,대림동,126.75525,33.4992,제주특별자치도 제주시 구좌읍 덕천리 776
1428.0,대림동,126.75497,33.499,제주특별자치도 제주시 구좌읍 덕천리 1796
1429.0,멍중내,126.6886,33.5007,제주특별자치도 제주시 조천읍 선흘리 3138-2
1430.0,감귤작목반입구,126.68444,33.53419,제주특별자치도 제주시 조천읍 북촌리 1810-3
1431.0,감귤작목반입구,126.68458999999999,33.5341,제주특별자치도 제주시 조천읍 북촌리 2721
1432.0,제주국제자유도시개발센터,126.57125,33.45283,제주특별자치도 제주시 영평동 2184
1433.0,제주국제자유도시개발센터,126.57146000000002,33.452729999999995,제주특별자치도 제주시 영평동 2273
1434.0,제주국제대학교,126.57216000000001,33.44141,제주특별자치도 제주시 영평동 2235
1436.0,가물개공원,126.58465,33.52466,제주특별자치도 제주시 삼양이동 1949-1
1437.0,가물개공원,126.58482,33.52455,제주특별자치도 제주시 삼양이동 2182-1
1438.0,삼양3동,126.57952,33.5251,제주특별자치도 제주시 삼양삼동 2582-5
1439.0,삼양3동,126.5797,33.524680000000004,제주특별자치도 제주시 삼양삼동 2582-1
1440.0,하귀휴먼시아입구,126.41545,33.48572,제주특별자치도 제주시 애월읍 하귀1리 562
1441.0,하귀휴먼시아1단지,126.41618000000001,33.48368,제주특별자치도 제주시 애월읍 하귀1리 562
1442.0,하귀휴먼시아2단지앞,126.41485,33.4813,제주특별자치도 제주시 애월읍 하귀1리 562
1443.0,하귀휴먼시아입구,126.41515,33.48573,제주특별자치도 제주시 애월읍 하귀1리 137-3
1444.0,하귀휴먼시아1단지,126.41587,33.48338,제주특별자치도 제주시 애월읍 하귀1리 562
1445.0,하귀휴먼시아2단지앞,126.41468,33.481359999999995,제주특별자치도 제주시 애월읍 하귀1리 165-2
1446.0,서문사거리,126.5198,33.51079,제주특별자치도 제주시 용담일동 2578
1447.0,라마다프라자제주호텔,126.51848000000001,33.518229999999996,제주특별자치도 제주시 삼도이동 1222-45
1448.0,라마다프라자제주호텔,126.51856000000001,33.51838,제주특별자치도 제주시 삼도이동 1264
1449.0,카카오,126.57122,33.45126,제주특별자치도 제주시 영평동 2180
1450.0,디지털융합센터,126.57146000000002,33.4513,제주특별자치도 제주시 영평동 2273
1451.0,도평입구,126.46503999999999,33.4795,제주특별자치도 제주시 노형동 3766
1452.0,도평입구,126.46528,33.479459999999996,제주특별자치도 제주시 노형동 3129-6
1453.0,부민장례식장,126.52241000000001,33.48076,제주특별자치도 제주시 도남동 1237-1
1454.0,부민장례식장,126.52233999999999,33.480920000000005,제주특별자치도 제주시 도남동 1237-1
1455.0,한일베라체,126.54836,33.4948,제주특별자치도 제주시 이도이동 150-1
1456.0,한일베라체,126.54855,33.494170000000004,제주특별자치도 제주시 이도이동 1956
1457.0,거로사거리,126.55701,33.50765,제주특별자치도 제주시 화북이동 5128-2
1458.0,거로사거리,126.55526,33.507,제주특별자치도 제주시 건입동 9-1
1459.0,거로사거리,126.5555,33.50778,제주특별자치도 제주시 화북이동 5758
1460.0,거로사거리,126.557,33.50689000000001,제주특별자치도 제주시 화북이동 5243
1461.0,신광사거리,126.49333,33.49384000000001,제주특별자치도 제주시 연동 1928-4
1462.0,연동365의원,126.4912,33.481759999999994,제주특별자치도 제주시 연동 1546
1463.0,메종글래드제주,126.4869,33.48608,제주특별자치도 제주시 연동 252-14
1464.0,연동365의원,126.49231,33.48196,제주특별자치도 제주시 연동 1373-3
1465.0,한국BMI,126.57298999999999,33.44907,제주특별자치도 제주시 영평동 2273
1466.0,한국BMI,126.5732,33.44899,제주특별자치도 제주시 영평동 2195
1467.0,첨단꿈에그린3단지아파트,126.57721000000001,33.4505,제주특별자치도 제주시 월평동 747
1468.0,첨단꿈에그린3단지아파트,126.57771000000001,33.44954,제주특별자치도 제주시 월평동 750
1469.0,구산마을입구,126.53505,33.4844,제주특별자치도 제주시 아라일동 2567-2
1470.0,구산마을입구,126.53639,33.483909999999995,제주특별자치도 제주시 아라일동 2602-4
1471.0,제주여자중고등학교제주지방해양경찰청,126.54182,33.48516,제주특별자치도 제주시 아라일동 2419-9
1472.0,제주여자중고등학교,126.54171000000001,33.485,제주특별자치도 제주시 아라일동 2370-3
1473.0,하도리서문동,126.88188000000001,33.52738,제주특별자치도 제주시 구좌읍 하도리 1933
1474.0,하도리서문동,126.8814,33.52722,제주특별자치도 제주시 구좌읍 하도리 3352
1475.0,선진동,126.70321000000001,33.45753,제주특별자치도 제주시 조천읍 선흘리 1938-10
1477.0,신연동,126.2495,33.31624,제주특별자치도 제주시 한경면 청수리 604-8
1478.0,신연동,126.24965,33.31608,제주특별자치도 제주시 한경면 청수리 604-3
1479.0,가시나물,126.56995,33.47252,제주특별자치도 제주시 영평동 1924-4
1480.0,가시나물,126.57014,33.471090000000004,제주특별자치도 제주시 영평동 2010-2
1481.0,달샘마을,126.57015,33.474509999999995,제주특별자치도 제주시 월평동 1373-8
1482.0,달샘마을,126.56996000000001,33.47442,제주특별자치도 제주시 월평동 1379
1483.0,제주삼양동유적,126.58641999999999,33.5232,제주특별자치도 제주시 삼양이동 2124-2
1484.0,제주삼양동유적,126.58675,33.52294000000001,제주특별자치도 제주시 삼양이동 2184-1
1485.0,오라동주민센터,126.51258999999999,33.4952,제주특별자치도 제주시 오라일동 1246-6
1486.0,오라1동복지회관,126.51638999999999,33.49392,제주특별자치도 제주시 오라일동 1287-7
1487.0,해병대제9여단,126.49973999999999,33.47729,제주특별자치도 제주시 연동 489-16
1488.0,해병대제9여단,126.49975,33.477509999999995,제주특별자치도 제주시 연동 489-9
1489.0,방선문빌리지,126.5368,33.47766,제주특별자치도 제주시 아라일동 2807-3
1490.0,방선문빌리지,126.53635,33.47767,제주특별자치도 제주시 아라일동 2807-1
1491.0,함덕농협주유소,126.67492,33.5365,제주특별자치도 제주시 조천읍 함덕리 72-141
1492.0,신사동(종점),126.67791000000001,33.52537,제주특별자치도 제주시 조천읍 함덕리 317-12
1493.0,신산마을입구,126.45786000000001,33.479409999999994,제주특별자치도 제주시 도평동 19-7
1494.0,신산마을입구,126.45885,33.47922,제주특별자치도 제주시 도평동 11-6
1495.0,한라도서관입구,126.51636,33.480979999999995,제주특별자치도 제주시 오라이동 1567-3
1496.0,한라도서관입구,126.51493,33.481190000000005,제주특별자치도 제주시 오라이동 1550-5
1497.0,오등동입구,126.52933999999999,33.48123,제주특별자치도 제주시 도남동 439-6
1498.0,오등동입구,126.53056000000001,33.48141,제주특별자치도 제주시 도남동 214-2
1499.0,제주영지학교,126.54267,33.489290000000004,제주특별자치도 제주시 이도이동 695-3
1500.0,제주영지학교,126.5429,33.48919,제주특별자치도 제주시 이도이동 695-3
1501.0,탐라중학교,126.5453,33.49075,제주특별자치도 제주시 아라이동 1262-6
1502.0,탐라중학교,126.54552,33.49112,제주특별자치도 제주시 아라이동 1262-6
1503.0,한마음병원,126.54735,33.496,제주특별자치도 제주시 이도이동 212-5
1504.0,한마음병원,126.5472,33.495940000000004,제주특별자치도 제주시 이도이동 1942-1
1505.0,돌선밭,126.42516,33.45415,제주특별자치도 제주시 애월읍 광령리 4059-2
1506.0,돌선밭,126.42517,33.45397,제주특별자치도 제주시 애월읍 광령리 4059-1
1507.0,던덕모롤,126.40817,33.462309999999995,제주특별자치도 제주시 애월읍 상귀리 698-2
1508.0,던덕모롤,126.40838000000001,33.4624,제주특별자치도 제주시 애월읍 고성리 1412-1
1509.0,삼담우체국,126.51303999999999,33.50253,제주특별자치도 제주시 용담일동 2830
1510.0,용해로,126.50258000000001,33.51522,제주특별자치도 제주시 용담삼동 1034-4
1511.0,용해로,126.50226,33.51575,제주특별자치도 제주시 용담삼동 1034-26
1512.0,도두동,126.4662,33.50287,제주특별자치도 제주시 도두일동 2531-1
1513.0,우령서로입구,126.4264,33.49155,제주특별자치도 제주시 외도일동 648-1
1514.0,우령서로입구,126.42621000000001,33.49179,제주특별자치도 제주시 외도일동 648-1
1515.0,함덕리(4구),126.67421999999999,33.53929,제주특별자치도 제주시 조천읍 함덕리 4150-3
1516.0,하귀농협장례식장,126.42589,33.47268,제주특별자치도 제주시 애월읍 광령리 3676-10
1517.0,하귀농협장례식장,126.42647,33.47249,제주특별자치도 제주시 애월읍 광령리 3674-4
1518.0,하귀1리,126.41909,33.47222,제주특별자치도 제주시 애월읍 하귀1리 909-1
1519.0,하귀1리,126.41769,33.47241,제주특별자치도 제주시 애월읍 하귀1리 1130-4
1520.0,애조로광령1리입구,126.43562,33.47137,제주특별자치도 제주시 애월읍 광령리 1751-1
1521.0,애조로광령1리입구,126.43417,33.47213,제주특별자치도 제주시 애월읍 광령리 1695-6
1522.0,사라마을,126.44086999999999,33.46929,제주특별자치도 제주시 애월읍 광령리 1872-2
1523.0,사라마을,126.44001000000002,33.46986,제주특별자치도 제주시 애월읍 광령리 1872-2
1524.0,상귀동카름,126.41297,33.47319,제주특별자치도 제주시 애월읍 상귀리 171-4
1525.0,청소년수련원,126.61873999999999,33.45456,제주특별자치도 제주시 봉개동 237-2
1526.0,4.3평화공원,126.62162,33.451190000000004,제주특별자치도 제주시 봉개동 산 78-30
1527.0,4.3평화공원,126.6219,33.451029999999996,제주특별자치도 제주시 봉개동 산 53-11
1528.0,청소년수련원,126.61921000000001,33.45425,제주특별자치도 제주시 봉개동 234-158
1529.0,4.3평화공원입구,126.62008999999999,33.453109999999995,제주특별자치도 제주시 봉개동 237-2
1530.0,교래자연휴양림,126.66628999999999,33.443090000000005,제주특별자치도 제주시 조천읍 교래리 산 52-1
1531.0,교래자연휴양림,126.66605,33.44373,제주특별자치도 제주시 조천읍 교래리 산 52-1
1532.0,S중앙병원,126.47166999999999,33.49285,제주특별자치도 제주시 도두일동 2280-3
1533.0,S중앙병원,126.47182,33.49293,제주특별자치도 제주시 도두일동 2280-3
1534.0,새마을금고연수원,126.39676000000001,33.41341,제주특별자치도 제주시 애월읍 유수암리 3256
1535.0,새마을금고연수원,126.39716999999999,33.41285,제주특별자치도 제주시 애월읍 유수암리 3257
1536.0,화북초등학교후문,126.56318999999999,33.52023,제주특별자치도 제주시 화북일동 3970-1
1537.0,김녕미로공원,126.77247,33.53613,제주특별자치도 제주시 구좌읍 김녕리 산 38-1
1538.0,김녕미로공원,126.77248999999999,33.53604,제주특별자치도 제주시 구좌읍 김녕리 산 38-1
1539.0,"다랑쉬오름입구(남),손지오름",126.81711999999999,33.46031,제주특별자치도 제주시 구좌읍 세화리 3593-18
1540.0,"다랑쉬오름입구(남),손지오름",126.81713,33.46024,제주특별자치도 제주시 구좌읍 송당리 1-11
1541.0,메이즈랜드,126.79907,33.49087,제주특별자치도 제주시 구좌읍 한동리 4848
1542.0,근로복지공단,126.54453999999998,33.49986,제주특별자치도 제주시 일도이동 115
1543.0,근로복지공단,126.54436000000001,33.499829999999996,제주특별자치도 제주시 이도이동 443
1544.0,화북휴먼시아정문,126.57632,33.51597,제주특별자치도 제주시 화북일동 1002-1
1545.0,성수동,126.4128,33.48095,제주특별자치도 제주시 애월읍 하귀1리 586
1546.0,성수동,126.41273999999999,33.48079,제주특별자치도 제주시 애월읍 하귀1리 613-13
1547.0,광평고치동산,126.46373,33.4836,제주특별자치도 제주시 노형동 2920-5
1548.0,광평고치동산,126.46411,33.48366,제주특별자치도 제주시 노형동 2921-1
1549.0,대흘1리,126.65166,33.49889,제주특별자치도 제주시 조천읍 대흘리 2345-5
1550.0,멍중내,126.68585,33.51113,제주특별자치도 제주시 조천읍 선흘리 3686-2
1551.0,멍중내,126.6863,33.51123,제주특별자치도 제주시 조천읍 선흘리 3687-5
1552.0,청수리웃동네,126.24597,33.31989,제주특별자치도 제주시 한경면 청수리 3389
1553.0,청수리웃동네,126.24592,33.31986,제주특별자치도 제주시 한경면 청수리 1459
1554.0,개법사,126.33831,33.40422,제주특별자치도 제주시 애월읍 어음리 2931-2
1555.0,개법사,126.33823000000001,33.40442,제주특별자치도 제주시 애월읍 어음리 3902
1556.0,두인빌라삼거리,126.40409,33.42407,제주특별자치도 제주시 애월읍 유수암리 1381-12
1557.0,두인빌라삼거리,126.40411999999999,33.4241,제주특별자치도 제주시 애월읍 유수암리 1381-6
1558.0,유수암리입구,126.39103,33.44339,제주특별자치도 제주시 애월읍 장전리 628-2
1559.0,장전리입구,126.39112,33.44352,제주특별자치도 제주시 애월읍 장전리 632-13
1560.0,웃거리,126.40256000000001,33.43942,제주특별자치도 제주시 애월읍 유수암리 1779-3
1561.0,웃거리,126.40307,33.439840000000004,제주특별자치도 제주시 애월읍 유수암리 1853-2
1562.0,전국환경감시협회,126.66095,33.462270000000004,제주특별자치도 제주시 조천읍 와흘리 산 13-6
1563.0,전국환경감시협회,126.66078999999999,33.46224,제주특별자치도 제주시 조천읍 와흘리 산 13-35
1564.0,제주시외버스터미널,126.51478999999999,33.49946,제주특별자치도 제주시 오라일동 2455-16
1565.0,시외버스출발지(가상정류소),126.51478,33.49946,제주특별자치도 제주시 오라일동 2455-16
1566.0,금능해수욕장,126.23558999999999,33.389540000000004,제주특별자치도 제주시 한림읍 협재리 2689-2
1567.0,금능해수욕장,126.23565,33.38947,제주특별자치도 제주시 한림읍 협재리 2689-2
1568.0,당동산,126.4334,33.46001,제주특별자치도 제주시 애월읍 광령리 2150-4
1569.0,제주자동차검사정비사업조합,126.56191000000001,33.510290000000005,제주특별자치도 제주시 화북이동 3583-5
1570.0,거로마을,126.56043000000001,33.50983,제주특별자치도 제주시 화북이동 3467-1
1571.0,제주국제대학교,126.57243000000001,33.441320000000005,제주특별자치도 제주시 영평동 2235
1572.0,제주절물자연휴양림,126.63025,33.4407,제주특별자치도 제주시 봉개동 산 78-33
1573.0,노루생태관찰원,126.62753000000001,33.44485,제주특별자치도 제주시 봉개동 산 53-18
1574.0,노루생태관찰원,126.62732,33.44473,제주특별자치도 제주시 봉개동 산 53-3
1575.0,영등물,126.73613999999999,33.55556,제주특별자치도 제주시 구좌읍 김녕리 4322
1576.0,금산목,126.80524,33.55366,제주특별자치도 제주시 구좌읍 행원리 1351-2
1577.0,삼양3동포구,126.57623999999998,33.52717,제주특별자치도 제주시 삼양삼동 2682
1578.0,별빛누리공원/난타공연장,126.54831000000001,33.445440000000005,제주특별자치도 제주시 오등동 10-1
1579.0,제주국제공항(600번),126.49252,33.50577,제주특별자치도 제주시 용담이동 1984-5
1580.0,전경대입구,126.87714,33.50679,제주특별자치도 제주시 구좌읍 상도리 산 7-2
1581.0,전경대입구,126.87763999999999,33.506809999999994,제주특별자치도 제주시 구좌읍 하도리 산 76
1582.0,동부위생처리장입구,126.69538,33.43631,제주특별자치도 제주시 조천읍 교래리 산 39
1583.0,동부위생처리장입구,126.69547,33.43645,제주특별자치도 제주시 조천읍 교래리 산 39-3
1584.0,셰프라인월드,126.73161999999999,33.43468,제주특별자치도 제주시 구좌읍 송당리 2635-1
1585.0,셰프라인월드,126.73241999999999,33.43489,제주특별자치도 제주시 구좌읍 송당리 2635-3
1586.0,환경시설관리소,126.62541999999999,33.480340000000005,제주특별자치도 제주시 회천동 424-10
1587.0,환경시설관리소,126.62572,33.47952,제주특별자치도 제주시 회천동 422-7
1588.0,당동산,126.4336,33.4599,제주특별자치도 제주시 애월읍 광령리 2151-1
1589.0,번대동,126.39225,33.477740000000004,제주특별자치도 제주시 애월읍 하귀2리 2966-5
1590.0,청용사,126.33073999999999,33.44166,제주특별자치도 제주시 애월읍 납읍리 1827-7
1591.0,청용사,126.33081999999999,33.44191,제주특별자치도 제주시 애월읍 납읍리 1781-1
1592.0,가원,126.5629,33.49866,제주특별자치도 제주시 화북이동 3089-1
1593.0,다희연,126.70605,33.48723,제주특별자치도 제주시 조천읍 선흘리 1672-2
1594.0,다희연,126.70633000000001,33.48748,제주특별자치도 제주시 조천읍 선흘리 1672
1595.0,비자림로교래입구,126.61716000000001,33.419129999999996,제주특별자치도 제주시 봉개동 산 78-1
1596.0,고상동,126.6734,33.50854,제주특별자치도 제주시 조천읍 대흘리 149-1
1597.0,고상동,126.67321000000001,33.508590000000005,제주특별자치도 제주시 조천읍 대흘리 144
1598.0,산앗도,126.6369,33.49532,제주특별자치도 제주시 조천읍 와흘리 2814
1600.0,서부신협유통영농조합,126.26114,33.3356,제주특별자치도 제주시 한경면 저지리 2095-1
1601.0,저지리,126.25343000000001,33.3267,제주특별자치도 제주시 한경면 저지리 1522-11
1602.0,청소년수련원,126.23875,33.3776,제주특별자치도 제주시 한림읍 협재리 2838
1603.0,청소년수련원,126.23881999999999,33.37684,제주특별자치도 제주시 한림읍 금능리 산 19-5
1604.0,금능농공단지입구,126.24721000000001,33.36258,제주특별자치도 제주시 한림읍 금능리 485-3
1605.0,금능농공단지입구,126.24736999999999,33.36266,제주특별자치도 제주시 한림읍 금능리 485-6
1606.0,금능농공단지,126.24327,33.35913,제주특별자치도 제주시 한림읍 금능리 407-7
1607.0,금능농공단지,126.24346000000001,33.35899000000001,제주특별자치도 제주시 한림읍 금능리 407-18
1608.0,더마파크,126.24281,33.3571,제주특별자치도 제주시 한림읍 금능리 2318
1609.0,더마파크,126.24304,33.35725,제주특별자치도 제주시 한림읍 금능리 409-2
1610.0,서부농업기술센터,126.24745,33.35281,제주특별자치도 제주시 한림읍 금능리 산 23-2
1611.0,서부농업기술센터,126.24748999999998,33.35241,제주특별자치도 제주시 한림읍 월림리 산 9-54
1612.0,제주유리의성,126.27191,33.31413,제주특별자치도 제주시 한경면 저지리 산 39-2
1613.0,제주유리의성,126.27206000000001,33.31367,제주특별자치도 제주시 한경면 저지리 산 37-10
1614.0,제주평화양로원,126.61133999999998,33.46524,제주특별자치도 제주시 봉개동 234-200
1615.0,제주평화양로원,126.61112,33.4655,제주특별자치도 제주시 봉개동 275-39
1616.0,안국사,126.61119,33.4686,제주특별자치도 제주시 봉개동 325-2
1617.0,안국사,126.61088000000001,33.46897,제주특별자치도 제주시 봉개동 319
1618.0,방애왓,126.60484,33.48118,제주특별자치도 제주시 봉개동 635-1
1619.0,방애왓,126.60525,33.48123,제주특별자치도 제주시 봉개동 685-18
1620.0,명도암,126.60965,33.47376,제주특별자치도 제주시 봉개동 458-8
1621.0,명도암,126.60987,33.473859999999995,제주특별자치도 제주시 봉개동 458-1
1622.0,축산마을,126.4859,33.44656,제주특별자치도 제주시 노형동 315-6
1623.0,월정리용천동,126.78275,33.55072,제주특별자치도 제주시 구좌읍 월정리 1320-2
1624.0,월정리용천동,126.78201999999999,33.5506,제주특별자치도 제주시 구좌읍 월정리 1320-1
1625.0,삼양1동,126.58671000000001,33.525259999999996,제주특별자치도 제주시 삼양일동 1676-1
1626.0,애월하나로마트,126.3213,33.46008,제주특별자치도 제주시 애월읍 애월리 1400-7
1627.0,애월하나로마트,126.32112,33.46001,제주특별자치도 제주시 애월읍 애월리 1378-5
1628.0,붉은오름휴양림입구,126.68274,33.402409999999996,제주특별자치도 서귀포시 표선면 가시리 산 158-3
1629.0,붉은오름휴양림입구,126.68276999999999,33.403259999999996,제주특별자치도 서귀포시 표선면 가시리 산 158-5
1630.0,메이즈랜드,126.79833,33.49068,제주특별자치도 제주시 구좌읍 한동리 4458-1
1631.0,삼부장미아파트입구,126.59002,33.52744000000001,제주특별자치도 제주시 삼양일동 1601-6
1632.0,한림천주교회,126.26528,33.417790000000004,제주특별자치도 제주시 한림읍 한림리 1309-3
1636.0,롯데호텔,126.41032,33.24872,제주특별자치도 서귀포시 색달동 2812-4
1637.0,캐슬렉스골프클럽,126.35627,33.33905,제주특별자치도 서귀포시 안덕면 광평리 산 123-5
1638.0,캐슬렉스골프클럽,126.35543,33.33735,제주특별자치도 서귀포시 안덕면 광평리 349
1639.0,상창보건진료소,126.36294,33.274640000000005,제주특별자치도 서귀포시 안덕면 상창리 626-2
1640.0,상창보건진료소,126.3628,33.27458,제주특별자치도 서귀포시 안덕면 상창리 626-2
1641.0,우남동,126.3909,33.264540000000004,제주특별자치도 서귀포시 상예동 4999
1642.0,우남동,126.39088999999998,33.26432,제주특별자치도 서귀포시 상예동 4999
1643.0,소보리당입구,126.38201000000001,33.26419,제주특별자치도 서귀포시 상예동 4999
1644.0,예래사우나,126.38501000000001,33.264179999999996,제주특별자치도 서귀포시 상예동 2802-2
1645.0,중문관광단지입구,126.41261999999999,33.25593,제주특별자치도 서귀포시 색달동 3383
1646.0,중문관광단지입구,126.4126,33.255790000000005,제주특별자치도 서귀포시 색달동 2551-3
1647.0,예래입구,126.40463999999999,33.25869,제주특별자치도 서귀포시 색달동 3391
1648.0,예래입구,126.40442,33.25862,제주특별자치도 서귀포시 색달동 3391
1649.0,회수삼거리,126.4424,33.26133,제주특별자치도 서귀포시 회수동 769-2
1650.0,회수삼거리,126.44223999999998,33.26112,제주특별자치도 서귀포시 회수동 770-5
1651.0,볼목당,126.43613,33.25665,제주특별자치도 서귀포시 중문동 1835-3
1652.0,볼목당,126.43609,33.25671,제주특별자치도 서귀포시 중문동 1835-4
1653.0,1100도로입구,126.43163999999999,33.25159,제주특별자치도 서귀포시 중문동 1918-3
1654.0,대천동주민센터,126.47828,33.25088,제주특별자치도 서귀포시 도순동 266-5
1655.0,대천동주민센터,126.47832,33.25107,제주특별자치도 서귀포시 도순동 266-4
1656.0,도순동,126.47478000000001,33.25275,제주특별자치도 서귀포시 도순동 896-12
1657.0,도순동,126.4733,33.252629999999996,제주특별자치도 서귀포시 도순동 811
1658.0,속도르,126.46983,33.252959999999995,제주특별자치도 서귀포시 도순동 786-1
1659.0,속도르,126.47048000000001,33.25271,제주특별자치도 서귀포시 도순동 759-4
1660.0,제주국제컨벤션센터중문대포해안주상절리대,126.42472,33.24309,제주특별자치도 서귀포시 중문동 2504
1661.0,씨에스호텔,126.42033,33.24385,제주특별자치도 서귀포시 중문동 2643-4
1662.0,씨에스호텔,126.42031999999999,33.24362,제주특별자치도 서귀포시 중문동 2798-9
1663.0,상예2동,126.3772,33.2644,제주특별자치도 서귀포시 상예동 4999
1664.0,상예2동,126.37716999999999,33.26417,제주특별자치도 서귀포시 상예동 4631-7
1665.0,창천리,126.37153,33.265409999999996,제주특별자치도 서귀포시 안덕면 창천리 155-14
1666.0,창천리,126.37082,33.26598,제주특별자치도 서귀포시 안덕면 창천리 153-6
1667.0,지세못,126.46423,33.253029999999995,제주특별자치도 서귀포시 하원동 325-3
1668.0,서진아파트,126.46391000000001,33.25334,제주특별자치도 서귀포시 하원동 1878
1669.0,하원동,126.46167,33.25367,제주특별자치도 서귀포시 월평동 232-4
1670.0,하원동,126.4606,33.254129999999996,제주특별자치도 서귀포시 하원동 1878
1671.0,중문고등학교,126.44858,33.252759999999995,제주특별자치도 서귀포시 대포동 533-2
1672.0,중문고등학교,126.4477,33.252829999999996,제주특별자치도 서귀포시 대포동 628-7
1673.0,한국통신,126.51155,33.25367,제주특별자치도 서귀포시 서호동 1478-2
1674.0,한국통신,126.51116,33.25312,제주특별자치도 서귀포시 법환동 753
1675.0,신시가지,126.50628,33.24978,제주특별자치도 서귀포시 강정동 248-3
1676.0,성산하이츠빌라,126.5048,33.25011,제주특별자치도 서귀포시 강정동 186-4
1677.0,반참모르,126.50113,33.25022,제주특별자치도 서귀포시 강정동 5630-1
1678.0,반참모르,126.5011,33.25,제주특별자치도 서귀포시 강정동 1233-2
1679.0,염돈,126.49478,33.2499,제주특별자치도 서귀포시 강정동 2144-5
1680.0,염돈동,126.49405,33.25012,제주특별자치도 서귀포시 강정동 2093-3
1681.0,묵은길입구,126.48838,33.25065,제주특별자치도 서귀포시 강정동 5630-10
1682.0,묵은길입구,126.48848999999998,33.250440000000005,제주특별자치도 서귀포시 강정동 3306-3
1683.0,용흥동,126.48346000000001,33.25025,제주특별자치도 서귀포시 강정동 4024-4
1684.0,용흥동,126.48251,33.25045,제주특별자치도 서귀포시 강정동 4033-9
1685.0,플레이케이팝박물관,126.41415,33.25007,제주특별자치도 서귀포시 색달동 2864-20
1686.0,농업기술원,126.48661000000001,33.260909999999996,제주특별자치도 서귀포시 강정동 3436-5
1687.0,농업기술원,126.48655,33.26082,제주특별자치도 서귀포시 강정동 3462-2
1688.0,월산동,126.49171000000001,33.2599,제주특별자치도 서귀포시 강정동 5630-1
1689.0,월산동,126.49221999999999,33.26012,제주특별자치도 서귀포시 강정동 1914-12
1690.0,신시가지,126.50968,33.26035,제주특별자치도 서귀포시 강정동 186
1691.0,신시가지,126.50995,33.26044,제주특별자치도 서귀포시 서호동 1478
1692.0,신시가지,126.51043,33.25898,제주특별자치도 서귀포시 서호동 1478-1
1693.0,신시가지,126.51026,33.258340000000004,제주특별자치도 서귀포시 강정동 186
1694.0,시청후문,126.51078000000001,33.25675,제주특별자치도 서귀포시 서호동 1478-2
1695.0,시청후문,126.51116999999999,33.25604000000001,제주특별자치도 서귀포시 법환동 731-7
1696.0,회수동,126.44391999999999,33.263690000000004,제주특별자치도 서귀포시 회수동 389-2
1697.0,삼주연립주택,126.51035,33.25025,제주특별자치도 서귀포시 법환동 753
1698.0,동남아파트,126.50998,33.249790000000004,제주특별자치도 서귀포시 법환동 753
1699.0,제주월드컵경기장서귀포버스터미널,126.509,33.24912,제주특별자치도 서귀포시 법환동 816-9
1702.0,대림한숲빌라,126.50598000000001,33.25165,제주특별자치도 서귀포시 강정동 186-1
1703.0,국민건강보험공단,126.507,33.2544,제주특별자치도 서귀포시 강정동 186-1
1704.0,국민건강보험공단,126.50681000000002,33.25462,제주특별자치도 서귀포시 강정동 186-1
1705.0,서귀포우체국서귀포시청제2청사,126.51007,33.25507,제주특별자치도 서귀포시 법환동 754
1706.0,서귀포우체국서귀포시청제2청사,126.50894,33.25517,제주특별자치도 서귀포시 강정동 187
1707.0,서귀포경찰서,126.5076,33.25608,제주특별자치도 서귀포시 법환동 754
1708.0,서귀포경찰서,126.50761000000001,33.256370000000004,제주특별자치도 서귀포시 강정동 186
1709.0,하원초등학교,126.45985,33.25347,제주특별자치도 서귀포시 월평동 239-3
1710.0,하원초등학교,126.46007,33.253170000000004,제주특별자치도 서귀포시 월평동 239-7
1711.0,머구낭동산,126.45831000000001,33.24566,제주특별자치도 서귀포시 월평동 753-11
1712.0,머구낭동산,126.45815,33.24573,제주특별자치도 서귀포시 하원동 1615-2
1713.0,월평아왜낭목,126.45867,33.24362,제주특별자치도 서귀포시 월평동 741-3
1714.0,월평아왜낭목,126.4588,33.24353,제주특별자치도 서귀포시 월평동 513
1715.0,월평알동네,126.46036000000001,33.24343,제주특별자치도 서귀포시 월평동 499-7
1716.0,월평알동네,126.46055,33.24327,제주특별자치도 서귀포시 월평동 510-2
1717.0,동병듸,126.46349,33.24238,제주특별자치도 서귀포시 월평동 558-1
1718.0,동병듸,126.46326,33.24269,제주특별자치도 서귀포시 월평동 400-5
1719.0,이천장물,126.46748999999998,33.24175,제주특별자치도 서귀포시 월평동 73-2
1720.0,이천장물,126.46708999999998,33.24179,제주특별자치도 서귀포시 월평동 72-2
1721.0,허물서,126.47363,33.23877,제주특별자치도 서귀포시 강정동 5491-2
1722.0,허물서,126.47386999999999,33.2385,제주특별자치도 서귀포시 강정동 5492-7
1723.0,섯가름,126.47582,33.23703,제주특별자치도 서귀포시 강정동 4370-4
1724.0,섯가름,126.47605,33.237120000000004,제주특별자치도 서귀포시 강정동 4370
1726.0,강정농협,126.47827,33.23603,제주특별자치도 서귀포시 강정동 4400-3
1727.0,강정초등학교,126.47977,33.23561,제주특별자치도 서귀포시 강정동 4548
1728.0,강정초등학교,126.4801,33.235640000000004,제주특별자치도 서귀포시 강정동 4521-10
1729.0,서귀포여자고등학교,126.53137,33.24463,제주특별자치도 서귀포시 호근동 1532-1
1730.0,서귀포여자고등학교,126.53168000000001,33.24438,제주특별자치도 서귀포시 호근동 1561
1731.0,수모루,126.52443999999998,33.24593,제주특별자치도 서귀포시 서호동 30-7
1732.0,주거물,126.52123999999999,33.24394,제주특별자치도 서귀포시 법환동 69-2
1733.0,주거물,126.52122,33.24378,제주특별자치도 서귀포시 법환동 69-4
1734.0,공물,126.51635,33.24067,제주특별자치도 서귀포시 법환동 454
1735.0,공물,126.51628999999998,33.240429999999996,제주특별자치도 서귀포시 법환동 450
1736.0,신세계빌라,126.51467,33.239540000000005,제주특별자치도 서귀포시 법환동 424-3
1737.0,신세계빌라,126.51501999999999,33.23958,제주특별자치도 서귀포시 법환동 425-6
1738.0,법환새마을금고,126.51398,33.23843,제주특별자치도 서귀포시 법환동 352
1739.0,법환새마을금고,126.51342,33.23785,제주특별자치도 서귀포시 법환동 260-5
1740.0,법환농협,126.5119,33.23728,제주특별자치도 서귀포시 법환동 1275-3
1741.0,뒷동산,126.51068000000001,33.23666,제주특별자치도 서귀포시 법환동 1282
1742.0,법환초등학교,126.50941,33.236740000000005,제주특별자치도 서귀포시 법환동 1299-4
1743.0,법환초등학교,126.50815,33.23653,제주특별자치도 서귀포시 법환동 1291-4
1744.0,남성마을,126.55417,33.24262,제주특별자치도 서귀포시 서홍동 744-8
1745.0,종합문예진흥사업소,126.55365,33.24508,제주특별자치도 서귀포시 서홍동 586
1746.0,삼매봉도서관,126.55363999999999,33.24557,제주특별자치도 서귀포시 서홍동 578-15
1747.0,남성마을입구,126.5526,33.2477,제주특별자치도 서귀포시 서홍동 558-1
1748.0,남성마을입구,126.55224,33.24795,제주특별자치도 서귀포시 서홍동 534-5
1749.0,삼매봉입구,126.5438,33.24491,제주특별자치도 서귀포시 호근동 268-5
1750.0,삼매봉,126.54354,33.2447,제주특별자치도 서귀포시 호근동 310-1
1751.0,여의물,126.53822,33.24504,제주특별자치도 서귀포시 호근동 461-3
1752.0,여의물,126.53777,33.24483,제주특별자치도 서귀포시 호근동 461-1
1753.0,솜반천,126.55332,33.25015,제주특별자치도 서귀포시 서홍동 1196-2
1754.0,솜반천,126.55333,33.251059999999995,제주특별자치도 서귀포시 서홍동 1184-1
1755.0,외돌개,126.54739,33.24096,제주특별자치도 서귀포시 서홍동 795-3
1756.0,서호북문,126.52205,33.26123,제주특별자치도 서귀포시 서호동 595-7
1757.0,서호북문,126.52301000000001,33.26113,제주특별자치도 서귀포시 서호동 609-1
1758.0,바가잣도,126.52707,33.2614,제주특별자치도 서귀포시 호근동 2142
1759.0,바가잣도,126.52743000000001,33.26126,제주특별자치도 서귀포시 호근동 2013-2
1760.0,용천사입구,126.52951999999999,33.26145,제주특별자치도 서귀포시 호근동 1170-2
1761.0,용천사입구,126.5302,33.261309999999995,제주특별자치도 서귀포시 호근동 1136-3
1762.0,돗소,126.53613,33.26187,제주특별자치도 서귀포시 호근동 801-4
1763.0,돗소,126.5352,33.26197,제주특별자치도 서귀포시 호근동 793
